[
  {
    "uf": "GO",
    "name": "Abadia de Goiás",
    "latitude": -16.7573,
    "longitude": -49.4412
  },
  {
    "uf": "MG",
    "name": "Abadia dos Dourados",
    "latitude": -18.4831,
    "longitude": -47.3916
  },
  {
    "uf": "GO",
    "name": "Abadiânia",
    "latitude": -16.197,
    "longitude": -48.7057
  },
  {
    "uf": "MG",
    "name": "Abaeté",
    "latitude": -19.1551,
    "longitude": -45.4444
  },
  {
    "uf": "PA",
    "name": "Abaetetuba",
    "latitude": -1.72183,
    "longitude": -48.8788
  },
  {
    "uf": "CE",
    "name": "Abaiara",
    "latitude": -7.34588,
    "longitude": -39.0416
  },
  {
    "uf": "BA",
    "name": "Abaíra",
    "latitude": -13.2488,
    "longitude": -41.6619
  },
  {
    "uf": "BA",
    "name": "Abaré",
    "latitude": -8.72073,
    "longitude": -39.1162
  },
  {
    "uf": "PR",
    "name": "Abatiá",
    "latitude": -23.3049,
    "longitude": -50.3133
  },
  {
    "uf": "SC",
    "name": "Abdon Batista",
    "latitude": -27.6126,
    "longitude": -51.0233
  },
  {
    "uf": "PA",
    "name": "Abel Figueiredo",
    "latitude": -4.95333,
    "longitude": -48.3933
  },
  {
    "uf": "SC",
    "name": "Abelardo Luz",
    "latitude": -26.5716,
    "longitude": -52.3229
  },
  {
    "uf": "MG",
    "name": "Abre Campo",
    "latitude": -20.2996,
    "longitude": -42.4743
  },
  {
    "uf": "PE",
    "name": "Abreu e Lima",
    "latitude": -7.90072,
    "longitude": -34.8984
  },
  {
    "uf": "TO",
    "name": "Abreulândia",
    "latitude": -9.62101,
    "longitude": -49.1518
  },
  {
    "uf": "MG",
    "name": "Acaiaca",
    "latitude": -20.359,
    "longitude": -43.1439
  },
  {
    "uf": "MA",
    "name": "Açailândia",
    "latitude": -4.94714,
    "longitude": -47.5004
  },
  {
    "uf": "BA",
    "name": "Acajutiba",
    "latitude": -11.6575,
    "longitude": -38.0197
  },
  {
    "uf": "PA",
    "name": "Acará",
    "latitude": -1.95383,
    "longitude": -48.1985
  },
  {
    "uf": "CE",
    "name": "Acarape",
    "latitude": -4.22083,
    "longitude": -38.7055
  },
  {
    "uf": "CE",
    "name": "Acaraú",
    "latitude": -2.88769,
    "longitude": -40.1183
  },
  {
    "uf": "RN",
    "name": "Acari",
    "latitude": -6.4282,
    "longitude": -36.6347
  },
  {
    "uf": "PI",
    "name": "Acauã",
    "latitude": -8.21954,
    "longitude": -41.0831
  },
  {
    "uf": "RS",
    "name": "Aceguá",
    "latitude": -31.8665,
    "longitude": -54.1615
  },
  {
    "uf": "CE",
    "name": "Acopiara",
    "latitude": -6.08911,
    "longitude": -39.448
  },
  {
    "uf": "MT",
    "name": "Acorizal",
    "latitude": -15.194,
    "longitude": -56.3632
  },
  {
    "uf": "AC",
    "name": "Acrelândia",
    "latitude": -9.82581,
    "longitude": -66.8972
  },
  {
    "uf": "GO",
    "name": "Acreúna",
    "latitude": -17.396,
    "longitude": -50.3749
  },
  {
    "uf": "RN",
    "name": "Açu",
    "latitude": -5.58362,
    "longitude": -36.914
  },
  {
    "uf": "MG",
    "name": "Açucena",
    "latitude": -19.0671,
    "longitude": -42.5419
  },
  {
    "uf": "SP",
    "name": "Adamantina",
    "latitude": -21.682,
    "longitude": -51.0737
  },
  {
    "uf": "GO",
    "name": "Adelândia",
    "latitude": -16.4127,
    "longitude": -50.1657
  },
  {
    "uf": "SP",
    "name": "Adolfo",
    "latitude": -21.2325,
    "longitude": -49.6451
  },
  {
    "uf": "PR",
    "name": "Adrianópolis",
    "latitude": -24.6606,
    "longitude": -48.9922
  },
  {
    "uf": "BA",
    "name": "Adustina",
    "latitude": -10.5437,
    "longitude": -38.1113
  },
  {
    "uf": "PE",
    "name": "Afogados da Ingazeira",
    "latitude": -7.74312,
    "longitude": -37.631
  },
  {
    "uf": "RN",
    "name": "Afonso Bezerra",
    "latitude": -5.49229,
    "longitude": -36.5075
  },
  {
    "uf": "ES",
    "name": "Afonso Cláudio",
    "latitude": -20.0778,
    "longitude": -41.1261
  },
  {
    "uf": "MA",
    "name": "Afonso Cunha",
    "latitude": -4.13631,
    "longitude": -43.3275
  },
  {
    "uf": "PE",
    "name": "Afrânio",
    "latitude": -8.51136,
    "longitude": -41.0095
  },
  {
    "uf": "PA",
    "name": "Afuá",
    "latitude": -0.154874,
    "longitude": -50.3861
  },
  {
    "uf": "PE",
    "name": "Agrestina",
    "latitude": -8.45966,
    "longitude": -35.9447
  },
  {
    "uf": "PI",
    "name": "Agricolândia",
    "latitude": -5.79676,
    "longitude": -42.6664
  },
  {
    "uf": "SC",
    "name": "Agrolândia",
    "latitude": -27.4087,
    "longitude": -49.822
  },
  {
    "uf": "SC",
    "name": "Agronômica",
    "latitude": -27.2662,
    "longitude": -49.708
  },
  {
    "uf": "PA",
    "name": "Água Azul do Norte",
    "latitude": -6.79053,
    "longitude": -50.4791
  },
  {
    "uf": "MG",
    "name": "Água Boa",
    "latitude": -17.9914,
    "longitude": -42.3806
  },
  {
    "uf": "MT",
    "name": "Água Boa",
    "latitude": -14.051,
    "longitude": -52.1601
  },
  {
    "uf": "PI",
    "name": "Água Branca",
    "latitude": -5.88856,
    "longitude": -42.637
  },
  {
    "uf": "PB",
    "name": "Água Branca",
    "latitude": -7.51144,
    "longitude": -37.6357
  },
  {
    "uf": "AL",
    "name": "Água Branca",
    "latitude": -9.262,
    "longitude": -37.938
  },
  {
    "uf": "MS",
    "name": "Água Clara",
    "latitude": -20.4452,
    "longitude": -52.879
  },
  {
    "uf": "MG",
    "name": "Água Comprida",
    "latitude": -20.0576,
    "longitude": -48.1069
  },
  {
    "uf": "SC",
    "name": "Água Doce",
    "latitude": -26.9985,
    "longitude": -51.5528
  },
  {
    "uf": "MA",
    "name": "Água Doce do Maranhão",
    "latitude": -2.84048,
    "longitude": -42.1189
  },
  {
    "uf": "ES",
    "name": "Água Doce do Norte",
    "latitude": -18.5482,
    "longitude": -40.9854
  },
  {
    "uf": "BA",
    "name": "Água Fria",
    "latitude": -11.8618,
    "longitude": -38.7639
  },
  {
    "uf": "GO",
    "name": "Água Fria de Goiás",
    "latitude": -14.9778,
    "longitude": -47.7823
  },
  {
    "uf": "GO",
    "name": "Água Limpa",
    "latitude": -18.0771,
    "longitude": -48.7603
  },
  {
    "uf": "RN",
    "name": "Água Nova",
    "latitude": -6.20351,
    "longitude": -38.2941
  },
  {
    "uf": "PE",
    "name": "Água Preta",
    "latitude": -8.70609,
    "longitude": -35.5263
  },
  {
    "uf": "RS",
    "name": "Água Santa",
    "latitude": -28.1672,
    "longitude": -52.031
  },
  {
    "uf": "SP",
    "name": "Aguaí",
    "latitude": -22.0572,
    "longitude": -46.9735
  },
  {
    "uf": "MG",
    "name": "Aguanil",
    "latitude": -20.9439,
    "longitude": -45.3915
  },
  {
    "uf": "PE",
    "name": "Águas Belas",
    "latitude": -9.11125,
    "longitude": -37.1226
  },
  {
    "uf": "SP",
    "name": "Águas da Prata",
    "latitude": -21.9319,
    "longitude": -46.7176
  },
  {
    "uf": "SC",
    "name": "Águas de Chapecó",
    "latitude": -27.0754,
    "longitude": -52.9808
  },
  {
    "uf": "SP",
    "name": "Águas de Lindóia",
    "latitude": -22.4733,
    "longitude": -46.6314
  },
  {
    "uf": "SP",
    "name": "Águas de Santa Bárbara",
    "latitude": -22.8812,
    "longitude": -49.2421
  },
  {
    "uf": "SP",
    "name": "Águas de São Pedro",
    "latitude": -22.5977,
    "longitude": -47.8734
  },
  {
    "uf": "MG",
    "name": "Águas Formosas",
    "latitude": -17.0802,
    "longitude": -40.9384
  },
  {
    "uf": "SC",
    "name": "Águas Frias",
    "latitude": -26.8794,
    "longitude": -52.8568
  },
  {
    "uf": "GO",
    "name": "Águas Lindas de Goiás",
    "latitude": -15.7617,
    "longitude": -48.2816
  },
  {
    "uf": "SC",
    "name": "Águas Mornas",
    "latitude": -27.6963,
    "longitude": -48.8243
  },
  {
    "uf": "MG",
    "name": "Águas Vermelhas",
    "latitude": -15.7431,
    "longitude": -41.4571
  },
  {
    "uf": "RS",
    "name": "Agudo",
    "latitude": -29.6447,
    "longitude": -53.2515
  },
  {
    "uf": "SP",
    "name": "Agudos",
    "latitude": -22.4694,
    "longitude": -48.9863
  },
  {
    "uf": "PR",
    "name": "Agudos do Sul",
    "latitude": -25.9899,
    "longitude": -49.3343
  },
  {
    "uf": "ES",
    "name": "Águia Branca",
    "latitude": -18.9846,
    "longitude": -40.7437
  },
  {
    "uf": "PB",
    "name": "Aguiar",
    "latitude": -7.0918,
    "longitude": -38.1681
  },
  {
    "uf": "TO",
    "name": "Aguiarnópolis",
    "latitude": -6.55409,
    "longitude": -47.4702
  },
  {
    "uf": "MG",
    "name": "Aimorés",
    "latitude": -19.5007,
    "longitude": -41.0746
  },
  {
    "uf": "BA",
    "name": "Aiquara",
    "latitude": -14.1269,
    "longitude": -39.8937
  },
  {
    "uf": "CE",
    "name": "Aiuaba",
    "latitude": -6.57122,
    "longitude": -40.1178
  },
  {
    "uf": "MG",
    "name": "Aiuruoca",
    "latitude": -21.9736,
    "longitude": -44.6042
  },
  {
    "uf": "RS",
    "name": "Ajuricaba",
    "latitude": -28.2342,
    "longitude": -53.7757
  },
  {
    "uf": "MG",
    "name": "Alagoa",
    "latitude": -22.171,
    "longitude": -44.6413
  },
  {
    "uf": "PB",
    "name": "Alagoa Grande",
    "latitude": -7.03943,
    "longitude": -35.6206
  },
  {
    "uf": "PB",
    "name": "Alagoa Nova",
    "latitude": -7.05377,
    "longitude": -35.7591
  },
  {
    "uf": "PB",
    "name": "Alagoinha",
    "latitude": -6.94657,
    "longitude": -35.5332
  },
  {
    "uf": "PE",
    "name": "Alagoinha",
    "latitude": -8.4665,
    "longitude": -36.7788
  },
  {
    "uf": "PI",
    "name": "Alagoinha do Piauí",
    "latitude": -7.00039,
    "longitude": -40.9282
  },
  {
    "uf": "BA",
    "name": "Alagoinhas",
    "latitude": -12.1335,
    "longitude": -38.4208
  },
  {
    "uf": "SP",
    "name": "Alambari",
    "latitude": -23.5503,
    "longitude": -47.898
  },
  {
    "uf": "MG",
    "name": "Albertina",
    "latitude": -22.2018,
    "longitude": -46.6139
  },
  {
    "uf": "MA",
    "name": "Alcântara",
    "latitude": -2.39574,
    "longitude": -44.4062
  },
  {
    "uf": "CE",
    "name": "Alcântaras",
    "latitude": -3.58537,
    "longitude": -40.5479
  },
  {
    "uf": "PB",
    "name": "Alcantil",
    "latitude": -7.73668,
    "longitude": -36.0511
  },
  {
    "uf": "MS",
    "name": "Alcinópolis",
    "latitude": -18.3255,
    "longitude": -53.7042
  },
  {
    "uf": "BA",
    "name": "Alcobaça",
    "latitude": -17.5195,
    "longitude": -39.2036
  },
  {
    "uf": "MA",
    "name": "Aldeias Altas",
    "latitude": -4.62621,
    "longitude": -43.4689
  },
  {
    "uf": "RS",
    "name": "Alecrim",
    "latitude": -27.6579,
    "longitude": -54.7649
  },
  {
    "uf": "ES",
    "name": "Alegre",
    "latitude": -20.758,
    "longitude": -41.5382
  },
  {
    "uf": "RS",
    "name": "Alegrete",
    "latitude": -29.7902,
    "longitude": -55.7949
  },
  {
    "uf": "PI",
    "name": "Alegrete do Piauí",
    "latitude": -7.24196,
    "longitude": -40.8566
  },
  {
    "uf": "RS",
    "name": "Alegria",
    "latitude": -27.8345,
    "longitude": -54.0557
  },
  {
    "uf": "MG",
    "name": "Além Paraíba",
    "latitude": -21.8797,
    "longitude": -42.7176
  },
  {
    "uf": "PA",
    "name": "Alenquer",
    "latitude": -1.94623,
    "longitude": -54.7384
  },
  {
    "uf": "RN",
    "name": "Alexandria",
    "latitude": -6.40533,
    "longitude": -38.0142
  },
  {
    "uf": "GO",
    "name": "Alexânia",
    "latitude": -16.0834,
    "longitude": -48.5076
  },
  {
    "uf": "MG",
    "name": "Alfenas",
    "latitude": -21.4256,
    "longitude": -45.9477
  },
  {
    "uf": "ES",
    "name": "Alfredo Chaves",
    "latitude": -20.6396,
    "longitude": -40.7543
  },
  {
    "uf": "SP",
    "name": "Alfredo Marcondes",
    "latitude": -21.9527,
    "longitude": -51.414
  },
  {
    "uf": "MG",
    "name": "Alfredo Vasconcelos",
    "latitude": -21.1535,
    "longitude": -43.7718
  },
  {
    "uf": "SC",
    "name": "Alfredo Wagner",
    "latitude": -27.7001,
    "longitude": -49.3273
  },
  {
    "uf": "PB",
    "name": "Algodão de Jandaíra",
    "latitude": -6.89292,
    "longitude": -36.0129
  },
  {
    "uf": "PB",
    "name": "Alhandra",
    "latitude": -7.42977,
    "longitude": -34.9057
  },
  {
    "uf": "PE",
    "name": "Aliança",
    "latitude": -7.60398,
    "longitude": -35.2227
  },
  {
    "uf": "TO",
    "name": "Aliança do Tocantins",
    "latitude": -11.3056,
    "longitude": -48.9361
  },
  {
    "uf": "BA",
    "name": "Almadina",
    "latitude": -14.7089,
    "longitude": -39.6415
  },
  {
    "uf": "TO",
    "name": "Almas",
    "latitude": -11.5706,
    "longitude": -47.1792
  },
  {
    "uf": "PA",
    "name": "Almeirim",
    "latitude": -1.52904,
    "longitude": -52.5788
  },
  {
    "uf": "MG",
    "name": "Almenara",
    "latitude": -16.1785,
    "longitude": -40.6942
  },
  {
    "uf": "RN",
    "name": "Almino Afonso",
    "latitude": -6.1475,
    "longitude": -37.7636
  },
  {
    "uf": "PR",
    "name": "Almirante Tamandaré",
    "latitude": -25.3188,
    "longitude": -49.3037
  },
  {
    "uf": "RS",
    "name": "Almirante Tamandaré do Sul",
    "latitude": -28.1149,
    "longitude": -52.9142
  },
  {
    "uf": "GO",
    "name": "Aloândia",
    "latitude": -17.7292,
    "longitude": -49.4769
  },
  {
    "uf": "MG",
    "name": "Alpercata",
    "latitude": -18.974,
    "longitude": -41.97
  },
  {
    "uf": "RS",
    "name": "Alpestre",
    "latitude": -27.2502,
    "longitude": -53.0341
  },
  {
    "uf": "MG",
    "name": "Alpinópolis",
    "latitude": -20.8631,
    "longitude": -46.3878
  },
  {
    "uf": "MT",
    "name": "Alta Floresta",
    "latitude": -9.86674,
    "longitude": -56.0867
  },
  {
    "uf": "RO",
    "name": "Alta Floresta D'Oeste",
    "latitude": -11.9283,
    "longitude": -61.9953
  },
  {
    "uf": "SP",
    "name": "Altair",
    "latitude": -20.5242,
    "longitude": -49.0571
  },
  {
    "uf": "PA",
    "name": "Altamira",
    "latitude": -3.20407,
    "longitude": -52.21
  },
  {
    "uf": "MA",
    "name": "Altamira do Maranhão",
    "latitude": -4.16598,
    "longitude": -45.4706
  },
  {
    "uf": "PR",
    "name": "Altamira do Paraná",
    "latitude": -24.7983,
    "longitude": -52.7128
  },
  {
    "uf": "CE",
    "name": "Altaneira",
    "latitude": -6.99837,
    "longitude": -39.7356
  },
  {
    "uf": "MG",
    "name": "Alterosa",
    "latitude": -21.2488,
    "longitude": -46.1387
  },
  {
    "uf": "PE",
    "name": "Altinho",
    "latitude": -8.48482,
    "longitude": -36.0644
  },
  {
    "uf": "SP",
    "name": "Altinópolis",
    "latitude": -21.0214,
    "longitude": -47.3712
  },
  {
    "uf": "SP",
    "name": "Alto Alegre",
    "latitude": -21.5811,
    "longitude": -50.168
  },
  {
    "uf": "RR",
    "name": "Alto Alegre",
    "latitude": 2.98858,
    "longitude": -61.3072
  },
  {
    "uf": "RS",
    "name": "Alto Alegre",
    "latitude": -28.7769,
    "longitude": -52.9893
  },
  {
    "uf": "MA",
    "name": "Alto Alegre do Maranhão",
    "latitude": -4.213,
    "longitude": -44.446
  },
  {
    "uf": "MA",
    "name": "Alto Alegre do Pindaré",
    "latitude": -3.66689,
    "longitude": -45.8421
  },
  {
    "uf": "RO",
    "name": "Alto Alegre dos Parecis",
    "latitude": -12.132,
    "longitude": -61.835
  },
  {
    "uf": "MT",
    "name": "Alto Araguaia",
    "latitude": -17.3153,
    "longitude": -53.2181
  },
  {
    "uf": "SC",
    "name": "Alto Bela Vista",
    "latitude": -27.4333,
    "longitude": -51.9044
  },
  {
    "uf": "MT",
    "name": "Alto Boa Vista",
    "latitude": -11.6732,
    "longitude": -51.3883
  },
  {
    "uf": "MG",
    "name": "Alto Caparaó",
    "latitude": -20.431,
    "longitude": -41.8738
  },
  {
    "uf": "RN",
    "name": "Alto do Rodrigues",
    "latitude": -5.28186,
    "longitude": -36.75
  },
  {
    "uf": "RS",
    "name": "Alto Feliz",
    "latitude": -29.3919,
    "longitude": -51.3123
  },
  {
    "uf": "MT",
    "name": "Alto Garças",
    "latitude": -16.9462,
    "longitude": -53.5272
  },
  {
    "uf": "GO",
    "name": "Alto Horizonte",
    "latitude": -14.1978,
    "longitude": -49.3378
  },
  {
    "uf": "MG",
    "name": "Alto Jequitibá",
    "latitude": -20.4208,
    "longitude": -41.967
  },
  {
    "uf": "PI",
    "name": "Alto Longá",
    "latitude": -5.25634,
    "longitude": -42.2096
  },
  {
    "uf": "MT",
    "name": "Alto Paraguai",
    "latitude": -14.5137,
    "longitude": -56.4776
  },
  {
    "uf": "PR",
    "name": "Alto Paraíso",
    "latitude": -26.1146,
    "longitude": -52.7469
  },
  {
    "uf": "RO",
    "name": "Alto Paraíso",
    "latitude": -9.71429,
    "longitude": -63.3188
  },
  {
    "uf": "GO",
    "name": "Alto Paraíso de Goiás",
    "latitude": -14.1305,
    "longitude": -47.51
  },
  {
    "uf": "PR",
    "name": "Alto Paraná",
    "latitude": -23.1312,
    "longitude": -52.3189
  },
  {
    "uf": "MA",
    "name": "Alto Parnaíba",
    "latitude": -9.10273,
    "longitude": -45.9303
  },
  {
    "uf": "PR",
    "name": "Alto Piquiri",
    "latitude": -24.0224,
    "longitude": -53.44
  },
  {
    "uf": "MG",
    "name": "Alto Rio Doce",
    "latitude": -21.0281,
    "longitude": -43.4067
  },
  {
    "uf": "ES",
    "name": "Alto Rio Novo",
    "latitude": -19.0618,
    "longitude": -41.0209
  },
  {
    "uf": "CE",
    "name": "Alto Santo",
    "latitude": -5.50894,
    "longitude": -38.2743
  },
  {
    "uf": "MT",
    "name": "Alto Taquari",
    "latitude": -17.8241,
    "longitude": -53.2792
  },
  {
    "uf": "PR",
    "name": "Altônia",
    "latitude": -23.8759,
    "longitude": -53.8958
  },
  {
    "uf": "PI",
    "name": "Altos",
    "latitude": -5.03888,
    "longitude": -42.4612
  },
  {
    "uf": "SP",
    "name": "Alumínio",
    "latitude": -23.5306,
    "longitude": -47.2546
  },
  {
    "uf": "AM",
    "name": "Alvarães",
    "latitude": -3.22727,
    "longitude": -64.8007
  },
  {
    "uf": "MG",
    "name": "Alvarenga",
    "latitude": -19.4174,
    "longitude": -41.7317
  },
  {
    "uf": "SP",
    "name": "Álvares Florence",
    "latitude": -20.3203,
    "longitude": -49.9141
  },
  {
    "uf": "SP",
    "name": "Álvares Machado",
    "latitude": -22.0764,
    "longitude": -51.4722
  },
  {
    "uf": "SP",
    "name": "Álvaro de Carvalho",
    "latitude": -22.0841,
    "longitude": -49.719
  },
  {
    "uf": "SP",
    "name": "Alvinlândia",
    "latitude": -22.4435,
    "longitude": -49.7623
  },
  {
    "uf": "MG",
    "name": "Alvinópolis",
    "latitude": -20.1098,
    "longitude": -43.0535
  },
  {
    "uf": "TO",
    "name": "Alvorada",
    "latitude": -12.4785,
    "longitude": -49.1249
  },
  {
    "uf": "RS",
    "name": "Alvorada",
    "latitude": -29.9914,
    "longitude": -51.0809
  },
  {
    "uf": "RO",
    "name": "Alvorada D'Oeste",
    "latitude": -11.3463,
    "longitude": -62.2847
  },
  {
    "uf": "MG",
    "name": "Alvorada de Minas",
    "latitude": -18.7334,
    "longitude": -43.3638
  },
  {
    "uf": "PI",
    "name": "Alvorada do Gurguéia",
    "latitude": -8.42418,
    "longitude": -43.777
  },
  {
    "uf": "GO",
    "name": "Alvorada do Norte",
    "latitude": -14.4797,
    "longitude": -46.491
  },
  {
    "uf": "PR",
    "name": "Alvorada do Sul",
    "latitude": -22.7813,
    "longitude": -51.2297
  },
  {
    "uf": "RR",
    "name": "Amajari",
    "latitude": 3.64571,
    "longitude": -61.3692
  },
  {
    "uf": "MS",
    "name": "Amambai",
    "latitude": -23.1058,
    "longitude": -55.2253
  },
  {
    "uf": "AP",
    "name": "Amapá",
    "latitude": 2.05267,
    "longitude": -50.7957
  },
  {
    "uf": "MA",
    "name": "Amapá do Maranhão",
    "latitude": -1.67524,
    "longitude": -46.0024
  },
  {
    "uf": "PR",
    "name": "Amaporã",
    "latitude": -23.0943,
    "longitude": -52.7866
  },
  {
    "uf": "PE",
    "name": "Amaraji",
    "latitude": -8.37691,
    "longitude": -35.4501
  },
  {
    "uf": "RS",
    "name": "Amaral Ferrador",
    "latitude": -30.8756,
    "longitude": -52.2509
  },
  {
    "uf": "GO",
    "name": "Amaralina",
    "latitude": -13.9236,
    "longitude": -49.2962
  },
  {
    "uf": "PI",
    "name": "Amarante",
    "latitude": -6.24304,
    "longitude": -42.8433
  },
  {
    "uf": "MA",
    "name": "Amarante do Maranhão",
    "latitude": -5.56913,
    "longitude": -46.7473
  },
  {
    "uf": "BA",
    "name": "Amargosa",
    "latitude": -13.0215,
    "longitude": -39.602
  },
  {
    "uf": "AM",
    "name": "Amaturá",
    "latitude": -3.37455,
    "longitude": -68.2005
  },
  {
    "uf": "BA",
    "name": "Amélia Rodrigues",
    "latitude": -12.3914,
    "longitude": -38.7563
  },
  {
    "uf": "BA",
    "name": "América Dourada",
    "latitude": -11.4429,
    "longitude": -41.439
  },
  {
    "uf": "SP",
    "name": "Americana",
    "latitude": -22.7374,
    "longitude": -47.3331
  },
  {
    "uf": "GO",
    "name": "Americano do Brasil",
    "latitude": -16.2514,
    "longitude": -49.9831
  },
  {
    "uf": "SP",
    "name": "Américo Brasiliense",
    "latitude": -21.7288,
    "longitude": -48.1147
  },
  {
    "uf": "SP",
    "name": "Américo de Campos",
    "latitude": -20.2985,
    "longitude": -49.7359
  },
  {
    "uf": "RS",
    "name": "Ametista do Sul",
    "latitude": -27.3607,
    "longitude": -53.183
  },
  {
    "uf": "CE",
    "name": "Amontada",
    "latitude": -3.36017,
    "longitude": -39.8288
  },
  {
    "uf": "GO",
    "name": "Amorinópolis",
    "latitude": -16.6151,
    "longitude": -51.0919
  },
  {
    "uf": "PB",
    "name": "Amparo",
    "latitude": -7.55502,
    "longitude": -37.0628
  },
  {
    "uf": "SP",
    "name": "Amparo",
    "latitude": -22.7088,
    "longitude": -46.772
  },
  {
    "uf": "SE",
    "name": "Amparo de São Francisco",
    "latitude": -10.1348,
    "longitude": -36.935
  },
  {
    "uf": "MG",
    "name": "Amparo do Serra",
    "latitude": -20.5051,
    "longitude": -42.8009
  },
  {
    "uf": "PR",
    "name": "Ampére",
    "latitude": -25.9168,
    "longitude": -53.4686
  },
  {
    "uf": "AL",
    "name": "Anadia",
    "latitude": -9.68489,
    "longitude": -36.3078
  },
  {
    "uf": "BA",
    "name": "Anagé",
    "latitude": -14.6151,
    "longitude": -41.1356
  },
  {
    "uf": "PR",
    "name": "Anahy",
    "latitude": -24.6449,
    "longitude": -53.1332
  },
  {
    "uf": "PA",
    "name": "Anajás",
    "latitude": -0.996811,
    "longitude": -49.9354
  },
  {
    "uf": "MA",
    "name": "Anajatuba",
    "latitude": -3.26269,
    "longitude": -44.6126
  },
  {
    "uf": "SP",
    "name": "Analândia",
    "latitude": -22.1289,
    "longitude": -47.6619
  },
  {
    "uf": "AM",
    "name": "Anamã",
    "latitude": -3.56697,
    "longitude": -61.3963
  },
  {
    "uf": "TO",
    "name": "Ananás",
    "latitude": -6.36437,
    "longitude": -48.0735
  },
  {
    "uf": "PA",
    "name": "Ananindeua",
    "latitude": -1.36391,
    "longitude": -48.3743
  },
  {
    "uf": "GO",
    "name": "Anápolis",
    "latitude": -16.3281,
    "longitude": -48.953
  },
  {
    "uf": "PA",
    "name": "Anapu",
    "latitude": -3.46985,
    "longitude": -51.2003
  },
  {
    "uf": "MA",
    "name": "Anapurus",
    "latitude": -3.67577,
    "longitude": -43.1014
  },
  {
    "uf": "MS",
    "name": "Anastácio",
    "latitude": -20.4823,
    "longitude": -55.8104
  },
  {
    "uf": "MS",
    "name": "Anaurilândia",
    "latitude": -22.1852,
    "longitude": -52.7191
  },
  {
    "uf": "SC",
    "name": "Anchieta",
    "latitude": -26.5382,
    "longitude": -53.3319
  },
  {
    "uf": "ES",
    "name": "Anchieta",
    "latitude": -20.7955,
    "longitude": -40.6425
  },
  {
    "uf": "BA",
    "name": "Andaraí",
    "latitude": -12.8049,
    "longitude": -41.3297
  },
  {
    "uf": "PR",
    "name": "Andirá",
    "latitude": -23.0533,
    "longitude": -50.2304
  },
  {
    "uf": "BA",
    "name": "Andorinha",
    "latitude": -10.3482,
    "longitude": -39.8391
  },
  {
    "uf": "MG",
    "name": "Andradas",
    "latitude": -22.0695,
    "longitude": -46.5724
  },
  {
    "uf": "SP",
    "name": "Andradina",
    "latitude": -20.8948,
    "longitude": -51.3786
  },
  {
    "uf": "RS",
    "name": "André da Rocha",
    "latitude": -28.6283,
    "longitude": -51.5797
  },
  {
    "uf": "MG",
    "name": "Andrelândia",
    "latitude": -21.7411,
    "longitude": -44.3117
  },
  {
    "uf": "SP",
    "name": "Angatuba",
    "latitude": -23.4917,
    "longitude": -48.4139
  },
  {
    "uf": "MG",
    "name": "Angelândia",
    "latitude": -17.7279,
    "longitude": -42.2641
  },
  {
    "uf": "MS",
    "name": "Angélica",
    "latitude": -22.1527,
    "longitude": -53.7708
  },
  {
    "uf": "PE",
    "name": "Angelim",
    "latitude": -8.88429,
    "longitude": -36.2902
  },
  {
    "uf": "SC",
    "name": "Angelina",
    "latitude": -27.5704,
    "longitude": -48.9879
  },
  {
    "uf": "BA",
    "name": "Angical",
    "latitude": -12.0063,
    "longitude": -44.7003
  },
  {
    "uf": "PI",
    "name": "Angical do Piauí",
    "latitude": -6.08786,
    "longitude": -42.74
  },
  {
    "uf": "TO",
    "name": "Angico",
    "latitude": -6.39179,
    "longitude": -47.8611
  },
  {
    "uf": "RN",
    "name": "Angicos",
    "latitude": -5.65792,
    "longitude": -36.6094
  },
  {
    "uf": "RJ",
    "name": "Angra dos Reis",
    "latitude": -23.0011,
    "longitude": -44.3196
  },
  {
    "uf": "BA",
    "name": "Anguera",
    "latitude": -12.1462,
    "longitude": -39.2462
  },
  {
    "uf": "PR",
    "name": "Ângulo",
    "latitude": -23.1946,
    "longitude": -51.9154
  },
  {
    "uf": "GO",
    "name": "Anhanguera",
    "latitude": -18.3339,
    "longitude": -48.2204
  },
  {
    "uf": "SP",
    "name": "Anhembi",
    "latitude": -22.793,
    "longitude": -48.1336
  },
  {
    "uf": "SP",
    "name": "Anhumas",
    "latitude": -22.2934,
    "longitude": -51.3895
  },
  {
    "uf": "GO",
    "name": "Anicuns",
    "latitude": -16.4642,
    "longitude": -49.9617
  },
  {
    "uf": "PI",
    "name": "Anísio de Abreu",
    "latitude": -9.18564,
    "longitude": -43.0494
  },
  {
    "uf": "SC",
    "name": "Anita Garibaldi",
    "latitude": -27.6897,
    "longitude": -51.1271
  },
  {
    "uf": "SC",
    "name": "Anitápolis",
    "latitude": -27.9012,
    "longitude": -49.1316
  },
  {
    "uf": "AM",
    "name": "Anori",
    "latitude": -3.74603,
    "longitude": -61.6575
  },
  {
    "uf": "RS",
    "name": "Anta Gorda",
    "latitude": -28.9698,
    "longitude": -52.0102
  },
  {
    "uf": "BA",
    "name": "Antas",
    "latitude": -10.3856,
    "longitude": -38.3401
  },
  {
    "uf": "PR",
    "name": "Antonina",
    "latitude": -25.4386,
    "longitude": -48.7191
  },
  {
    "uf": "CE",
    "name": "Antonina do Norte",
    "latitude": -6.76919,
    "longitude": -39.987
  },
  {
    "uf": "PI",
    "name": "Antônio Almeida",
    "latitude": -7.21276,
    "longitude": -44.1889
  },
  {
    "uf": "BA",
    "name": "Antônio Cardoso",
    "latitude": -12.4335,
    "longitude": -39.1176
  },
  {
    "uf": "SC",
    "name": "Antônio Carlos",
    "latitude": -27.5191,
    "longitude": -48.766
  },
  {
    "uf": "MG",
    "name": "Antônio Carlos",
    "latitude": -21.321,
    "longitude": -43.7451
  },
  {
    "uf": "MG",
    "name": "Antônio Dias",
    "latitude": -19.6491,
    "longitude": -42.8732
  },
  {
    "uf": "BA",
    "name": "Antônio Gonçalves",
    "latitude": -10.5767,
    "longitude": -40.2785
  },
  {
    "uf": "MS",
    "name": "Antônio João",
    "latitude": -22.1927,
    "longitude": -55.9517
  },
  {
    "uf": "RN",
    "name": "Antônio Martins",
    "latitude": -6.21367,
    "longitude": -37.8834
  },
  {
    "uf": "PR",
    "name": "Antônio Olinto",
    "latitude": -25.9804,
    "longitude": -50.1972
  },
  {
    "uf": "RS",
    "name": "Antônio Prado",
    "latitude": -28.8565,
    "longitude": -51.2883
  },
  {
    "uf": "MG",
    "name": "Antônio Prado de Minas",
    "latitude": -21.0192,
    "longitude": -42.1109
  },
  {
    "uf": "PB",
    "name": "Aparecida",
    "latitude": -6.78466,
    "longitude": -38.0803
  },
  {
    "uf": "SP",
    "name": "Aparecida",
    "latitude": -22.8495,
    "longitude": -45.2325
  },
  {
    "uf": "SP",
    "name": "AparecidaD'Oeste",
    "latitude": -20.4487,
    "longitude": -50.8835
  },
  {
    "uf": "GO",
    "name": "Aparecida de Goiânia",
    "latitude": -16.8198,
    "longitude": -49.2469
  },
  {
    "uf": "GO",
    "name": "Aparecida do Rio Doce",
    "latitude": -18.2941,
    "longitude": -51.1516
  },
  {
    "uf": "TO",
    "name": "Aparecida do Rio Negro",
    "latitude": -9.94139,
    "longitude": -47.9638
  },
  {
    "uf": "MS",
    "name": "Aparecida do Taboado",
    "latitude": -20.0873,
    "longitude": -51.0961
  },
  {
    "uf": "RJ",
    "name": "Aperibé",
    "latitude": -21.6252,
    "longitude": -42.1017
  },
  {
    "uf": "ES",
    "name": "Apiacá",
    "latitude": -21.1523,
    "longitude": -41.5693
  },
  {
    "uf": "MT",
    "name": "Apiacás",
    "latitude": -9.53981,
    "longitude": -57.4587
  },
  {
    "uf": "SP",
    "name": "Apiaí",
    "latitude": -24.5108,
    "longitude": -48.8443
  },
  {
    "uf": "MA",
    "name": "Apicum-Açu",
    "latitude": -1.45862,
    "longitude": -45.0864
  },
  {
    "uf": "SC",
    "name": "Apiúna",
    "latitude": -27.0375,
    "longitude": -49.3885
  },
  {
    "uf": "RN",
    "name": "Apodi",
    "latitude": -5.65349,
    "longitude": -37.7946
  },
  {
    "uf": "BA",
    "name": "Aporá",
    "latitude": -11.6577,
    "longitude": -38.0814
  },
  {
    "uf": "GO",
    "name": "Aporé",
    "latitude": -18.9607,
    "longitude": -51.9232
  },
  {
    "uf": "BA",
    "name": "Apuarema",
    "latitude": -13.8542,
    "longitude": -39.7501
  },
  {
    "uf": "PR",
    "name": "Apucarana",
    "latitude": -23.55,
    "longitude": -51.4635
  },
  {
    "uf": "AM",
    "name": "Apuí",
    "latitude": -7.19409,
    "longitude": -59.896
  },
  {
    "uf": "CE",
    "name": "Apuiarés",
    "latitude": -3.94506,
    "longitude": -39.4359
  },
  {
    "uf": "SE",
    "name": "Aquidabã",
    "latitude": -10.278,
    "longitude": -37.0148
  },
  {
    "uf": "MS",
    "name": "Aquidauana",
    "latitude": -20.4666,
    "longitude": -55.7868
  },
  {
    "uf": "CE",
    "name": "Aquiraz",
    "latitude": -3.89929,
    "longitude": -38.3896
  },
  {
    "uf": "SC",
    "name": "Arabutã",
    "latitude": -27.1587,
    "longitude": -52.1423
  },
  {
    "uf": "PB",
    "name": "Araçagi",
    "latitude": -6.84374,
    "longitude": -35.3737
  },
  {
    "uf": "MG",
    "name": "Araçaí",
    "latitude": -19.1955,
    "longitude": -44.2493
  },
  {
    "uf": "SE",
    "name": "Aracaju",
    "latitude": -10.9091,
    "longitude": -37.0677
  },
  {
    "uf": "SP",
    "name": "Araçariguama",
    "latitude": -23.4366,
    "longitude": -47.0608
  },
  {
    "uf": "BA",
    "name": "Araças",
    "latitude": -12.22,
    "longitude": -38.2027
  },
  {
    "uf": "CE",
    "name": "Aracati",
    "latitude": -4.55826,
    "longitude": -37.7679
  },
  {
    "uf": "BA",
    "name": "Aracatu",
    "latitude": -14.428,
    "longitude": -41.4648
  },
  {
    "uf": "SP",
    "name": "Araçatuba",
    "latitude": -21.2076,
    "longitude": -50.4401
  },
  {
    "uf": "BA",
    "name": "Araci",
    "latitude": -11.3253,
    "longitude": -38.9584
  },
  {
    "uf": "MG",
    "name": "Aracitaba",
    "latitude": -21.3446,
    "longitude": -43.3736
  },
  {
    "uf": "PE",
    "name": "Araçoiaba",
    "latitude": -7.78391,
    "longitude": -35.0809
  },
  {
    "uf": "CE",
    "name": "Aracoiaba",
    "latitude": -4.36872,
    "longitude": -38.8125
  },
  {
    "uf": "SP",
    "name": "Araçoiaba da Serra",
    "latitude": -23.5029,
    "longitude": -47.6166
  },
  {
    "uf": "ES",
    "name": "Aracruz",
    "latitude": -19.82,
    "longitude": -40.2764
  },
  {
    "uf": "GO",
    "name": "Araçu",
    "latitude": -16.3563,
    "longitude": -49.6804
  },
  {
    "uf": "MG",
    "name": "Araçuaí",
    "latitude": -16.8523,
    "longitude": -42.0637
  },
  {
    "uf": "GO",
    "name": "Aragarças",
    "latitude": -15.8955,
    "longitude": -52.2372
  },
  {
    "uf": "GO",
    "name": "Aragoiânia",
    "latitude": -16.9087,
    "longitude": -49.4476
  },
  {
    "uf": "TO",
    "name": "Aragominas",
    "latitude": -7.16005,
    "longitude": -48.5291
  },
  {
    "uf": "TO",
    "name": "Araguacema",
    "latitude": -8.80755,
    "longitude": -49.5569
  },
  {
    "uf": "TO",
    "name": "Araguaçu",
    "latitude": -12.9289,
    "longitude": -49.8231
  },
  {
    "uf": "MT",
    "name": "Araguaiana",
    "latitude": -15.7291,
    "longitude": -51.8341
  },
  {
    "uf": "TO",
    "name": "Araguaína",
    "latitude": -7.19238,
    "longitude": -48.2044
  },
  {
    "uf": "MT",
    "name": "Araguainha",
    "latitude": -16.857,
    "longitude": -53.0318
  },
  {
    "uf": "TO",
    "name": "Araguanã",
    "latitude": -6.58225,
    "longitude": -48.6395
  },
  {
    "uf": "MA",
    "name": "Araguanã",
    "latitude": -2.94644,
    "longitude": -45.6589
  },
  {
    "uf": "GO",
    "name": "Araguapaz",
    "latitude": -15.0909,
    "longitude": -50.6315
  },
  {
    "uf": "MG",
    "name": "Araguari",
    "latitude": -18.6456,
    "longitude": -48.1934
  },
  {
    "uf": "TO",
    "name": "Araguatins",
    "latitude": -5.64659,
    "longitude": -48.1232
  },
  {
    "uf": "MA",
    "name": "Araioses",
    "latitude": -2.89091,
    "longitude": -41.905
  },
  {
    "uf": "MS",
    "name": "Aral Moreira",
    "latitude": -22.9385,
    "longitude": -55.6334
  },
  {
    "uf": "BA",
    "name": "Aramari",
    "latitude": -12.0884,
    "longitude": -38.4969
  },
  {
    "uf": "RS",
    "name": "Arambaré",
    "latitude": -30.9092,
    "longitude": -51.5046
  },
  {
    "uf": "MA",
    "name": "Arame",
    "latitude": -4.88347,
    "longitude": -46.0032
  },
  {
    "uf": "SP",
    "name": "Aramina",
    "latitude": -20.0882,
    "longitude": -47.7873
  },
  {
    "uf": "SP",
    "name": "Arandu",
    "latitude": -23.1386,
    "longitude": -49.0487
  },
  {
    "uf": "MG",
    "name": "Arantina",
    "latitude": -21.9102,
    "longitude": -44.2555
  },
  {
    "uf": "SP",
    "name": "Arapeí",
    "latitude": -22.6717,
    "longitude": -44.4441
  },
  {
    "uf": "AL",
    "name": "Arapiraca",
    "latitude": -9.75487,
    "longitude": -36.6615
  },
  {
    "uf": "TO",
    "name": "Arapoema",
    "latitude": -7.65463,
    "longitude": -49.0637
  },
  {
    "uf": "MG",
    "name": "Araponga",
    "latitude": -20.6686,
    "longitude": -42.5178
  },
  {
    "uf": "PR",
    "name": "Arapongas",
    "latitude": -23.4153,
    "longitude": -51.4259
  },
  {
    "uf": "MG",
    "name": "Araporã",
    "latitude": -18.4357,
    "longitude": -49.1847
  },
  {
    "uf": "PR",
    "name": "Arapoti",
    "latitude": -24.1548,
    "longitude": -49.8285
  },
  {
    "uf": "PR",
    "name": "Arapuã",
    "latitude": -24.3132,
    "longitude": -51.7856
  },
  {
    "uf": "MG",
    "name": "Arapuá",
    "latitude": -19.0268,
    "longitude": -46.1484
  },
  {
    "uf": "MT",
    "name": "Araputanga",
    "latitude": -15.4641,
    "longitude": -58.3425
  },
  {
    "uf": "SC",
    "name": "Araquari",
    "latitude": -26.3754,
    "longitude": -48.7188
  },
  {
    "uf": "PB",
    "name": "Arara",
    "latitude": -6.82813,
    "longitude": -35.7552
  },
  {
    "uf": "SC",
    "name": "Araranguá",
    "latitude": -28.9356,
    "longitude": -49.4918
  },
  {
    "uf": "SP",
    "name": "Araraquara",
    "latitude": -21.7845,
    "longitude": -48.178
  },
  {
    "uf": "SP",
    "name": "Araras",
    "latitude": -22.3572,
    "longitude": -47.3842
  },
  {
    "uf": "CE",
    "name": "Ararendá",
    "latitude": -4.74567,
    "longitude": -40.831
  },
  {
    "uf": "MA",
    "name": "Arari",
    "latitude": -3.45214,
    "longitude": -44.7665
  },
  {
    "uf": "RS",
    "name": "Araricá",
    "latitude": -29.6168,
    "longitude": -50.9291
  },
  {
    "uf": "CE",
    "name": "Araripe",
    "latitude": -7.21319,
    "longitude": -40.1359
  },
  {
    "uf": "PE",
    "name": "Araripina",
    "latitude": -7.57073,
    "longitude": -40.494
  },
  {
    "uf": "RJ",
    "name": "Araruama",
    "latitude": -22.8697,
    "longitude": -42.3326
  },
  {
    "uf": "PR",
    "name": "Araruna",
    "latitude": -23.9315,
    "longitude": -52.5021
  },
  {
    "uf": "PB",
    "name": "Araruna",
    "latitude": -6.54848,
    "longitude": -35.7498
  },
  {
    "uf": "BA",
    "name": "Arataca",
    "latitude": -15.2651,
    "longitude": -39.419
  },
  {
    "uf": "RS",
    "name": "Aratiba",
    "latitude": -27.3978,
    "longitude": -52.2975
  },
  {
    "uf": "CE",
    "name": "Aratuba",
    "latitude": -4.41229,
    "longitude": -39.0471
  },
  {
    "uf": "BA",
    "name": "Aratuípe",
    "latitude": -13.0716,
    "longitude": -39.0038
  },
  {
    "uf": "SE",
    "name": "Arauá",
    "latitude": -11.2614,
    "longitude": -37.6201
  },
  {
    "uf": "PR",
    "name": "Araucária",
    "latitude": -25.5859,
    "longitude": -49.4047
  },
  {
    "uf": "MG",
    "name": "Araújos",
    "latitude": -19.9405,
    "longitude": -45.1671
  },
  {
    "uf": "MG",
    "name": "Araxá",
    "latitude": -19.5902,
    "longitude": -46.9438
  },
  {
    "uf": "MG",
    "name": "Arceburgo",
    "latitude": -21.359,
    "longitude": -46.9401
  },
  {
    "uf": "SP",
    "name": "Arco-Íris",
    "latitude": -21.7728,
    "longitude": -50.466
  },
  {
    "uf": "MG",
    "name": "Arcos",
    "latitude": -20.2863,
    "longitude": -45.5373
  },
  {
    "uf": "PE",
    "name": "Arcoverde",
    "latitude": -8.41519,
    "longitude": -37.0577
  },
  {
    "uf": "MG",
    "name": "Areado",
    "latitude": -21.3572,
    "longitude": -46.1421
  },
  {
    "uf": "RJ",
    "name": "Areal",
    "latitude": -22.2283,
    "longitude": -43.1118
  },
  {
    "uf": "SP",
    "name": "Arealva",
    "latitude": -22.031,
    "longitude": -48.9135
  },
  {
    "uf": "PB",
    "name": "Areia",
    "latitude": -6.96396,
    "longitude": -35.6977
  },
  {
    "uf": "RN",
    "name": "Areia Branca",
    "latitude": -4.95254,
    "longitude": -37.1252
  },
  {
    "uf": "SE",
    "name": "Areia Branca",
    "latitude": -10.758,
    "longitude": -37.3251
  },
  {
    "uf": "PB",
    "name": "Areia de Baraúnas",
    "latitude": -7.11702,
    "longitude": -36.9404
  },
  {
    "uf": "PB",
    "name": "Areial",
    "latitude": -7.04789,
    "longitude": -35.9313
  },
  {
    "uf": "SP",
    "name": "Areias",
    "latitude": -22.5786,
    "longitude": -44.6992
  },
  {
    "uf": "SP",
    "name": "Areiópolis",
    "latitude": -22.6672,
    "longitude": -48.6681
  },
  {
    "uf": "MT",
    "name": "Arenápolis",
    "latitude": -14.4472,
    "longitude": -56.8437
  },
  {
    "uf": "GO",
    "name": "Arenópolis",
    "latitude": -16.3837,
    "longitude": -51.5563
  },
  {
    "uf": "RN",
    "name": "Arês",
    "latitude": -6.18831,
    "longitude": -35.1608
  },
  {
    "uf": "MG",
    "name": "Argirita",
    "latitude": -21.6083,
    "longitude": -42.8292
  },
  {
    "uf": "MG",
    "name": "Aricanduva",
    "latitude": -17.8666,
    "longitude": -42.5533
  },
  {
    "uf": "MG",
    "name": "Arinos",
    "latitude": -15.9187,
    "longitude": -46.1043
  },
  {
    "uf": "MT",
    "name": "Aripuanã",
    "latitude": -10.1723,
    "longitude": -59.4568
  },
  {
    "uf": "RO",
    "name": "Ariquemes",
    "latitude": -9.90571,
    "longitude": -63.0325
  },
  {
    "uf": "SP",
    "name": "Ariranha",
    "latitude": -21.1872,
    "longitude": -48.7904
  },
  {
    "uf": "PR",
    "name": "Ariranha do Ivaí",
    "latitude": -24.3857,
    "longitude": -51.5839
  },
  {
    "uf": "RJ",
    "name": "Armação dos Búzios",
    "latitude": -22.7528,
    "longitude": -41.8846
  },
  {
    "uf": "SC",
    "name": "Armazém",
    "latitude": -28.2448,
    "longitude": -49.0215
  },
  {
    "uf": "CE",
    "name": "Arneiroz",
    "latitude": -6.3165,
    "longitude": -40.1653
  },
  {
    "uf": "PI",
    "name": "Aroazes",
    "latitude": -6.11022,
    "longitude": -41.7822
  },
  {
    "uf": "PB",
    "name": "Aroeiras",
    "latitude": -7.54473,
    "longitude": -35.7066
  },
  {
    "uf": "PI",
    "name": "Aroeiras do Itaim",
    "latitude": -7.24502,
    "longitude": -41.5325
  },
  {
    "uf": "PI",
    "name": "Arraial",
    "latitude": -6.65075,
    "longitude": -42.5418
  },
  {
    "uf": "RJ",
    "name": "Arraial do Cabo",
    "latitude": -22.9774,
    "longitude": -42.0267
  },
  {
    "uf": "TO",
    "name": "Arraias",
    "latitude": -12.9287,
    "longitude": -46.9359
  },
  {
    "uf": "RS",
    "name": "Arroio do Meio",
    "latitude": -29.4014,
    "longitude": -51.9557
  },
  {
    "uf": "RS",
    "name": "Arroio do Padre",
    "latitude": -31.4389,
    "longitude": -52.4246
  },
  {
    "uf": "RS",
    "name": "Arroio do Sal",
    "latitude": -29.5439,
    "longitude": -49.8895
  },
  {
    "uf": "RS",
    "name": "Arroio do Tigre",
    "latitude": -29.3348,
    "longitude": -53.0966
  },
  {
    "uf": "RS",
    "name": "Arroio dos Ratos",
    "latitude": -30.0875,
    "longitude": -51.7275
  },
  {
    "uf": "RS",
    "name": "Arroio Grande",
    "latitude": -32.2327,
    "longitude": -53.0862
  },
  {
    "uf": "SC",
    "name": "Arroio Trinta",
    "latitude": -26.9257,
    "longitude": -51.3407
  },
  {
    "uf": "SP",
    "name": "Artur Nogueira",
    "latitude": -22.5727,
    "longitude": -47.1727
  },
  {
    "uf": "GO",
    "name": "Aruanã",
    "latitude": -14.9166,
    "longitude": -51.075
  },
  {
    "uf": "SP",
    "name": "Arujá",
    "latitude": -23.3965,
    "longitude": -46.32
  },
  {
    "uf": "SC",
    "name": "Arvoredo",
    "latitude": -27.0748,
    "longitude": -52.4543
  },
  {
    "uf": "RS",
    "name": "Arvorezinha",
    "latitude": -28.8737,
    "longitude": -52.1781
  },
  {
    "uf": "SC",
    "name": "Ascurra",
    "latitude": -26.9548,
    "longitude": -49.3783
  },
  {
    "uf": "SP",
    "name": "Aspásia",
    "latitude": -20.16,
    "longitude": -50.728
  },
  {
    "uf": "PR",
    "name": "Assaí",
    "latitude": -23.3697,
    "longitude": -50.8459
  },
  {
    "uf": "CE",
    "name": "Assaré",
    "latitude": -6.8669,
    "longitude": -39.8689
  },
  {
    "uf": "SP",
    "name": "Assis",
    "latitude": -22.66,
    "longitude": -50.4183
  },
  {
    "uf": "AC",
    "name": "Assis Brasil",
    "latitude": -10.9298,
    "longitude": -69.5738
  },
  {
    "uf": "PR",
    "name": "Assis Chateaubriand",
    "latitude": -24.4168,
    "longitude": -53.5213
  },
  {
    "uf": "PB",
    "name": "Assunção",
    "latitude": -7.07231,
    "longitude": -36.725
  },
  {
    "uf": "PI",
    "name": "Assunção do Piauí",
    "latitude": -5.865,
    "longitude": -41.0389
  },
  {
    "uf": "MG",
    "name": "Astolfo Dutra",
    "latitude": -21.3184,
    "longitude": -42.8572
  },
  {
    "uf": "PR",
    "name": "Astorga",
    "latitude": -23.2318,
    "longitude": -51.6668
  },
  {
    "uf": "PR",
    "name": "Atalaia",
    "latitude": -23.1517,
    "longitude": -52.0551
  },
  {
    "uf": "AL",
    "name": "Atalaia",
    "latitude": -9.5119,
    "longitude": -36.0086
  },
  {
    "uf": "AM",
    "name": "Atalaia do Norte",
    "latitude": -4.37055,
    "longitude": -70.1967
  },
  {
    "uf": "SC",
    "name": "Atalanta",
    "latitude": -27.4219,
    "longitude": -49.7789
  },
  {
    "uf": "MG",
    "name": "Ataléia",
    "latitude": -18.0438,
    "longitude": -41.1149
  },
  {
    "uf": "SP",
    "name": "Atibaia",
    "latitude": -23.1171,
    "longitude": -46.5563
  },
  {
    "uf": "ES",
    "name": "Atilio Vivacqua",
    "latitude": -20.913,
    "longitude": -41.1986
  },
  {
    "uf": "TO",
    "name": "Augustinópolis",
    "latitude": -5.46863,
    "longitude": -47.8863
  },
  {
    "uf": "PA",
    "name": "Augusto Corrêa",
    "latitude": -1.05109,
    "longitude": -46.6147
  },
  {
    "uf": "MG",
    "name": "Augusto de Lima",
    "latitude": -18.0997,
    "longitude": -44.2655
  },
  {
    "uf": "RS",
    "name": "Augusto Pestana",
    "latitude": -28.5172,
    "longitude": -53.9883
  },
  {
    "uf": "RN",
    "name": "Augusto Severo (Campo Grande)",
    "latitude": -5.86206,
    "longitude": -37.3135
  },
  {
    "uf": "RS",
    "name": "Áurea",
    "latitude": -27.6936,
    "longitude": -52.0505
  },
  {
    "uf": "BA",
    "name": "Aurelino Leal",
    "latitude": -14.321,
    "longitude": -39.329
  },
  {
    "uf": "SP",
    "name": "Auriflama",
    "latitude": -20.6836,
    "longitude": -50.5572
  },
  {
    "uf": "GO",
    "name": "Aurilândia",
    "latitude": -16.6773,
    "longitude": -50.4641
  },
  {
    "uf": "CE",
    "name": "Aurora",
    "latitude": -6.93349,
    "longitude": -38.9742
  },
  {
    "uf": "SC",
    "name": "Aurora",
    "latitude": -27.3098,
    "longitude": -49.6295
  },
  {
    "uf": "PA",
    "name": "Aurora do Pará",
    "latitude": -2.14898,
    "longitude": -47.5677
  },
  {
    "uf": "TO",
    "name": "Aurora do Tocantins",
    "latitude": -12.7105,
    "longitude": -46.4076
  },
  {
    "uf": "AM",
    "name": "Autazes",
    "latitude": -3.58574,
    "longitude": -59.1256
  },
  {
    "uf": "SP",
    "name": "Avaí",
    "latitude": -22.1514,
    "longitude": -49.3356
  },
  {
    "uf": "SP",
    "name": "Avanhandava",
    "latitude": -21.4584,
    "longitude": -49.9509
  },
  {
    "uf": "SP",
    "name": "Avaré",
    "latitude": -23.1067,
    "longitude": -48.9251
  },
  {
    "uf": "PA",
    "name": "Aveiro",
    "latitude": -3.60841,
    "longitude": -55.3199
  },
  {
    "uf": "PI",
    "name": "Avelino Lopes",
    "latitude": -10.1345,
    "longitude": -43.9563
  },
  {
    "uf": "GO",
    "name": "Avelinópolis",
    "latitude": -16.4672,
    "longitude": -49.7579
  },
  {
    "uf": "MA",
    "name": "Axixá",
    "latitude": -2.83939,
    "longitude": -44.062
  },
  {
    "uf": "TO",
    "name": "Axixá do Tocantins",
    "latitude": -5.61275,
    "longitude": -47.7701
  },
  {
    "uf": "TO",
    "name": "Babaçulândia",
    "latitude": -7.20923,
    "longitude": -47.7613
  },
  {
    "uf": "MA",
    "name": "Bacabal",
    "latitude": -4.22447,
    "longitude": -44.7832
  },
  {
    "uf": "MA",
    "name": "Bacabeira",
    "latitude": -2.96452,
    "longitude": -44.3164
  },
  {
    "uf": "MA",
    "name": "Bacuri",
    "latitude": -1.6965,
    "longitude": -45.1328
  },
  {
    "uf": "MA",
    "name": "Bacurituba",
    "latitude": -2.71,
    "longitude": -44.7329
  },
  {
    "uf": "SP",
    "name": "Bady Bassitt",
    "latitude": -20.9197,
    "longitude": -49.4385
  },
  {
    "uf": "MG",
    "name": "Baependi",
    "latitude": -21.957,
    "longitude": -44.8874
  },
  {
    "uf": "RS",
    "name": "Bagé",
    "latitude": -31.3297,
    "longitude": -54.0999
  },
  {
    "uf": "PA",
    "name": "Bagre",
    "latitude": -1.90057,
    "longitude": -50.1987
  },
  {
    "uf": "PB",
    "name": "Baía da Traição",
    "latitude": -6.69209,
    "longitude": -34.9381
  },
  {
    "uf": "RN",
    "name": "Baía Formosa",
    "latitude": -6.37161,
    "longitude": -35.0033
  },
  {
    "uf": "BA",
    "name": "Baianópolis",
    "latitude": -12.3016,
    "longitude": -44.5388
  },
  {
    "uf": "PA",
    "name": "Baião",
    "latitude": -2.79021,
    "longitude": -49.6694
  },
  {
    "uf": "BA",
    "name": "Baixa Grande",
    "latitude": -11.9519,
    "longitude": -40.169
  },
  {
    "uf": "PI",
    "name": "Baixa Grande do Ribeiro",
    "latitude": -7.84903,
    "longitude": -45.219
  },
  {
    "uf": "CE",
    "name": "Baixio",
    "latitude": -6.71945,
    "longitude": -38.7134
  },
  {
    "uf": "ES",
    "name": "Baixo Guandu",
    "latitude": -19.5213,
    "longitude": -41.0109
  },
  {
    "uf": "SP",
    "name": "Balbinos",
    "latitude": -21.8963,
    "longitude": -49.3619
  },
  {
    "uf": "MG",
    "name": "Baldim",
    "latitude": -19.2832,
    "longitude": -43.9613
  },
  {
    "uf": "GO",
    "name": "Baliza",
    "latitude": -16.1966,
    "longitude": -52.5393
  },
  {
    "uf": "SC",
    "name": "Balneário Arroio do Silva",
    "latitude": -28.9806,
    "longitude": -49.4237
  },
  {
    "uf": "SC",
    "name": "Balneário Barra do Sul",
    "latitude": -26.4597,
    "longitude": -48.6123
  },
  {
    "uf": "SC",
    "name": "Balneário Camboriú",
    "latitude": -26.9926,
    "longitude": -48.6352
  },
  {
    "uf": "SC",
    "name": "Balneário Gaivota",
    "latitude": -29.1527,
    "longitude": -49.5841
  },
  {
    "uf": "SC",
    "name": "Balneário Piçarras",
    "latitude": -26.7639,
    "longitude": -48.6717
  },
  {
    "uf": "RS",
    "name": "Balneário Pinhal",
    "latitude": -30.2419,
    "longitude": -50.2337
  },
  {
    "uf": "SC",
    "name": "Balneário Rincão",
    "latitude": -28.8314,
    "longitude": -49.2352
  },
  {
    "uf": "PR",
    "name": "Balsa Nova",
    "latitude": -25.5804,
    "longitude": -49.6291
  },
  {
    "uf": "SP",
    "name": "Bálsamo",
    "latitude": -20.7348,
    "longitude": -49.5865
  },
  {
    "uf": "MA",
    "name": "Balsas",
    "latitude": -7.53214,
    "longitude": -46.0372
  },
  {
    "uf": "MG",
    "name": "Bambuí",
    "latitude": -20.0166,
    "longitude": -45.9754
  },
  {
    "uf": "CE",
    "name": "Banabuiú",
    "latitude": -5.30454,
    "longitude": -38.9132
  },
  {
    "uf": "SP",
    "name": "Bananal",
    "latitude": -22.6819,
    "longitude": -44.3281
  },
  {
    "uf": "PB",
    "name": "Bananeiras",
    "latitude": -6.74775,
    "longitude": -35.6246
  },
  {
    "uf": "MG",
    "name": "Bandeira",
    "latitude": -15.8783,
    "longitude": -40.5622
  },
  {
    "uf": "MG",
    "name": "Bandeira do Sul",
    "latitude": -21.7308,
    "longitude": -46.3833
  },
  {
    "uf": "SC",
    "name": "Bandeirante",
    "latitude": -26.7705,
    "longitude": -53.6413
  },
  {
    "uf": "MS",
    "name": "Bandeirantes",
    "latitude": -19.9275,
    "longitude": -54.3585
  },
  {
    "uf": "PR",
    "name": "Bandeirantes",
    "latitude": -23.1078,
    "longitude": -50.3704
  },
  {
    "uf": "TO",
    "name": "Bandeirantes do Tocantins",
    "latitude": -7.75612,
    "longitude": -48.5836
  },
  {
    "uf": "PA",
    "name": "Bannach",
    "latitude": -7.34779,
    "longitude": -50.3959
  },
  {
    "uf": "BA",
    "name": "Banzaê",
    "latitude": -10.5788,
    "longitude": -38.6212
  },
  {
    "uf": "RS",
    "name": "Barão",
    "latitude": -29.3725,
    "longitude": -51.4949
  },
  {
    "uf": "SP",
    "name": "Barão de Antonina",
    "latitude": -23.6284,
    "longitude": -49.5634
  },
  {
    "uf": "MG",
    "name": "Barão de Cocais",
    "latitude": -19.9389,
    "longitude": -43.4755
  },
  {
    "uf": "RS",
    "name": "Barão de Cotegipe",
    "latitude": -27.6208,
    "longitude": -52.3798
  },
  {
    "uf": "MA",
    "name": "Barão de Grajaú",
    "latitude": -6.74463,
    "longitude": -43.0261
  },
  {
    "uf": "MT",
    "name": "Barão de Melgaço",
    "latitude": -16.2067,
    "longitude": -55.9623
  },
  {
    "uf": "MG",
    "name": "Barão de Monte Alto",
    "latitude": -21.2444,
    "longitude": -42.2372
  },
  {
    "uf": "RS",
    "name": "Barão do Triunfo",
    "latitude": -30.3891,
    "longitude": -51.7384
  },
  {
    "uf": "RN",
    "name": "Baraúna",
    "latitude": -5.06977,
    "longitude": -37.6129
  },
  {
    "uf": "PB",
    "name": "Baraúna",
    "latitude": -6.63484,
    "longitude": -36.2601
  },
  {
    "uf": "MG",
    "name": "Barbacena",
    "latitude": -21.2214,
    "longitude": -43.7703
  },
  {
    "uf": "CE",
    "name": "Barbalha",
    "latitude": -7.2982,
    "longitude": -39.3021
  },
  {
    "uf": "SP",
    "name": "Barbosa",
    "latitude": -21.2657,
    "longitude": -49.9518
  },
  {
    "uf": "PR",
    "name": "Barbosa Ferraz",
    "latitude": -24.0334,
    "longitude": -52.004
  },
  {
    "uf": "PA",
    "name": "Barcarena",
    "latitude": -1.51187,
    "longitude": -48.6195
  },
  {
    "uf": "RN",
    "name": "Barcelona",
    "latitude": -5.94284,
    "longitude": -35.9247
  },
  {
    "uf": "AM",
    "name": "Barcelos",
    "latitude": -0.983373,
    "longitude": -62.9311
  },
  {
    "uf": "SP",
    "name": "Bariri",
    "latitude": -22.073,
    "longitude": -48.7438
  },
  {
    "uf": "BA",
    "name": "Barra",
    "latitude": -11.0859,
    "longitude": -43.1459
  },
  {
    "uf": "SC",
    "name": "Barra Bonita",
    "latitude": -26.654,
    "longitude": -53.44
  },
  {
    "uf": "SP",
    "name": "Barra Bonita",
    "latitude": -22.4909,
    "longitude": -48.5583
  },
  {
    "uf": "PI",
    "name": "Barra D'Alcântara",
    "latitude": -6.51645,
    "longitude": -42.1146
  },
  {
    "uf": "BA",
    "name": "Barra da Estiva",
    "latitude": -13.6237,
    "longitude": -41.3347
  },
  {
    "uf": "PE",
    "name": "Barra de Guabiraba",
    "latitude": -8.42075,
    "longitude": -35.6585
  },
  {
    "uf": "PB",
    "name": "Barra de Santa Rosa",
    "latitude": -6.71816,
    "longitude": -36.0671
  },
  {
    "uf": "PB",
    "name": "Barra de Santana",
    "latitude": -7.51809,
    "longitude": -35.9913
  },
  {
    "uf": "AL",
    "name": "Barra de Santo Antônio",
    "latitude": -9.4023,
    "longitude": -35.5101
  },
  {
    "uf": "ES",
    "name": "Barra de São Francisco",
    "latitude": -18.7548,
    "longitude": -40.8965
  },
  {
    "uf": "PB",
    "name": "Barra de São Miguel",
    "latitude": -7.74603,
    "longitude": -36.3209
  },
  {
    "uf": "AL",
    "name": "Barra de São Miguel",
    "latitude": -9.83842,
    "longitude": -35.9057
  },
  {
    "uf": "MT",
    "name": "Barra do Bugres",
    "latitude": -15.0702,
    "longitude": -57.1878
  },
  {
    "uf": "SP",
    "name": "Barra do Chapéu",
    "latitude": -24.4722,
    "longitude": -49.0238
  },
  {
    "uf": "BA",
    "name": "Barra do Choça",
    "latitude": -14.8654,
    "longitude": -40.5791
  },
  {
    "uf": "MA",
    "name": "Barra do Corda",
    "latitude": -5.49682,
    "longitude": -45.2485
  },
  {
    "uf": "MT",
    "name": "Barra do Garças",
    "latitude": -15.8804,
    "longitude": -52.264
  },
  {
    "uf": "RS",
    "name": "Barra do Guarita",
    "latitude": -27.1927,
    "longitude": -53.7109
  },
  {
    "uf": "PR",
    "name": "Barra do Jacaré",
    "latitude": -23.116,
    "longitude": -50.1842
  },
  {
    "uf": "BA",
    "name": "Barra do Mendes",
    "latitude": -11.81,
    "longitude": -42.059
  },
  {
    "uf": "TO",
    "name": "Barra do Ouro",
    "latitude": -7.69593,
    "longitude": -47.6776
  },
  {
    "uf": "RJ",
    "name": "Barra do Piraí",
    "latitude": -22.4715,
    "longitude": -43.8269
  },
  {
    "uf": "RS",
    "name": "Barra do Quaraí",
    "latitude": -30.2029,
    "longitude": -57.5497
  },
  {
    "uf": "RS",
    "name": "Barra do Ribeiro",
    "latitude": -30.2939,
    "longitude": -51.3014
  },
  {
    "uf": "RS",
    "name": "Barra do Rio Azul",
    "latitude": -27.4069,
    "longitude": -52.4084
  },
  {
    "uf": "BA",
    "name": "Barra do Rocha",
    "latitude": -14.2,
    "longitude": -39.5991
  },
  {
    "uf": "SP",
    "name": "Barra do Turvo",
    "latitude": -24.759,
    "longitude": -48.5013
  },
  {
    "uf": "SE",
    "name": "Barra dos Coqueiros",
    "latitude": -10.8996,
    "longitude": -37.0323
  },
  {
    "uf": "RS",
    "name": "Barra Funda",
    "latitude": -27.9205,
    "longitude": -53.0391
  },
  {
    "uf": "MG",
    "name": "Barra Longa",
    "latitude": -20.2869,
    "longitude": -43.0402
  },
  {
    "uf": "RJ",
    "name": "Barra Mansa",
    "latitude": -22.5481,
    "longitude": -44.1752
  },
  {
    "uf": "SC",
    "name": "Barra Velha",
    "latitude": -26.637,
    "longitude": -48.6933
  },
  {
    "uf": "RS",
    "name": "Barracão",
    "latitude": -27.6739,
    "longitude": -51.4585
  },
  {
    "uf": "PR",
    "name": "Barracão",
    "latitude": -26.2502,
    "longitude": -53.6324
  },
  {
    "uf": "PI",
    "name": "Barras",
    "latitude": -4.24468,
    "longitude": -42.2922
  },
  {
    "uf": "CE",
    "name": "Barreira",
    "latitude": -4.28921,
    "longitude": -38.6429
  },
  {
    "uf": "BA",
    "name": "Barreiras",
    "latitude": -12.1439,
    "longitude": -44.9968
  },
  {
    "uf": "PI",
    "name": "Barreiras do Piauí",
    "latitude": -9.9296,
    "longitude": -45.4702
  },
  {
    "uf": "AM",
    "name": "Barreirinha",
    "latitude": -2.79886,
    "longitude": -57.0679
  },
  {
    "uf": "MA",
    "name": "Barreirinhas",
    "latitude": -2.75863,
    "longitude": -42.8232
  },
  {
    "uf": "PE",
    "name": "Barreiros",
    "latitude": -8.81605,
    "longitude": -35.1832
  },
  {
    "uf": "SP",
    "name": "Barretos",
    "latitude": -20.5531,
    "longitude": -48.5698
  },
  {
    "uf": "SP",
    "name": "Barrinha",
    "latitude": -21.1864,
    "longitude": -48.1636
  },
  {
    "uf": "CE",
    "name": "Barro",
    "latitude": -7.17188,
    "longitude": -38.7741
  },
  {
    "uf": "BA",
    "name": "Barro Alto",
    "latitude": -11.7605,
    "longitude": -41.9054
  },
  {
    "uf": "GO",
    "name": "Barro Alto",
    "latitude": -14.9658,
    "longitude": -48.9086
  },
  {
    "uf": "PI",
    "name": "Barro Duro",
    "latitude": -5.81673,
    "longitude": -42.5147
  },
  {
    "uf": "BA",
    "name": "Barro Preto",
    "latitude": -14.7948,
    "longitude": -39.476
  },
  {
    "uf": "BA",
    "name": "Barrocas",
    "latitude": -11.5272,
    "longitude": -39.0776
  },
  {
    "uf": "TO",
    "name": "Barrolândia",
    "latitude": -9.83404,
    "longitude": -48.7252
  },
  {
    "uf": "CE",
    "name": "Barroquinha",
    "latitude": -3.02051,
    "longitude": -41.1358
  },
  {
    "uf": "RS",
    "name": "Barros Cassal",
    "latitude": -29.0947,
    "longitude": -52.5836
  },
  {
    "uf": "MG",
    "name": "Barroso",
    "latitude": -21.1907,
    "longitude": -43.972
  },
  {
    "uf": "SP",
    "name": "Barueri",
    "latitude": -23.5057,
    "longitude": -46.879
  },
  {
    "uf": "SP",
    "name": "Bastos",
    "latitude": -21.921,
    "longitude": -50.7357
  },
  {
    "uf": "MS",
    "name": "Bataguassu",
    "latitude": -21.7159,
    "longitude": -52.4221
  },
  {
    "uf": "PI",
    "name": "Batalha",
    "latitude": -4.0223,
    "longitude": -42.0787
  },
  {
    "uf": "AL",
    "name": "Batalha",
    "latitude": -9.6742,
    "longitude": -37.133
  },
  {
    "uf": "SP",
    "name": "Batatais",
    "latitude": -20.8929,
    "longitude": -47.5921
  },
  {
    "uf": "MS",
    "name": "Batayporã",
    "latitude": -22.2944,
    "longitude": -53.2705
  },
  {
    "uf": "CE",
    "name": "Baturité",
    "latitude": -4.32598,
    "longitude": -38.8812
  },
  {
    "uf": "SP",
    "name": "Bauru",
    "latitude": -22.3246,
    "longitude": -49.0871
  },
  {
    "uf": "PB",
    "name": "Bayeux",
    "latitude": -7.1238,
    "longitude": -34.9293
  },
  {
    "uf": "SP",
    "name": "Bebedouro",
    "latitude": -20.9491,
    "longitude": -48.4791
  },
  {
    "uf": "CE",
    "name": "Beberibe",
    "latitude": -4.17741,
    "longitude": -38.1271
  },
  {
    "uf": "CE",
    "name": "Bela Cruz",
    "latitude": -3.04996,
    "longitude": -40.1671
  },
  {
    "uf": "MS",
    "name": "Bela Vista",
    "latitude": -22.1073,
    "longitude": -56.5263
  },
  {
    "uf": "PR",
    "name": "Bela Vista da Caroba",
    "latitude": -25.8842,
    "longitude": -53.6725
  },
  {
    "uf": "GO",
    "name": "Bela Vista de Goiás",
    "latitude": -16.9693,
    "longitude": -48.9513
  },
  {
    "uf": "MG",
    "name": "Bela Vista de Minas",
    "latitude": -19.8302,
    "longitude": -43.0922
  },
  {
    "uf": "MA",
    "name": "Bela Vista do Maranhão",
    "latitude": -3.72618,
    "longitude": -45.3075
  },
  {
    "uf": "PR",
    "name": "Bela Vista do Paraíso",
    "latitude": -22.9937,
    "longitude": -51.1927
  },
  {
    "uf": "PI",
    "name": "Bela Vista do Piauí",
    "latitude": -7.98809,
    "longitude": -41.8675
  },
  {
    "uf": "SC",
    "name": "Bela Vista do Toldo",
    "latitude": -26.2746,
    "longitude": -50.4664
  },
  {
    "uf": "MA",
    "name": "Belágua",
    "latitude": -3.15485,
    "longitude": -43.5122
  },
  {
    "uf": "PA",
    "name": "Belém",
    "latitude": -1.4554,
    "longitude": -48.4898
  },
  {
    "uf": "PB",
    "name": "Belém",
    "latitude": -6.74261,
    "longitude": -35.5166
  },
  {
    "uf": "AL",
    "name": "Belém",
    "latitude": -9.57047,
    "longitude": -36.4904
  },
  {
    "uf": "PE",
    "name": "Belém de Maria",
    "latitude": -8.62504,
    "longitude": -35.8335
  },
  {
    "uf": "PB",
    "name": "Belém do Brejo do Cruz",
    "latitude": -6.18515,
    "longitude": -37.5348
  },
  {
    "uf": "PI",
    "name": "Belém do Piauí",
    "latitude": -7.36652,
    "longitude": -40.9688
  },
  {
    "uf": "PE",
    "name": "Belém do São Francisco",
    "latitude": -8.75046,
    "longitude": -38.9623
  },
  {
    "uf": "RJ",
    "name": "Belford Roxo",
    "latitude": -22.764,
    "longitude": -43.3992
  },
  {
    "uf": "MG",
    "name": "Belmiro Braga",
    "latitude": -21.944,
    "longitude": -43.4084
  },
  {
    "uf": "SC",
    "name": "Belmonte",
    "latitude": -26.843,
    "longitude": -53.5758
  },
  {
    "uf": "BA",
    "name": "Belmonte",
    "latitude": -15.8608,
    "longitude": -38.8758
  },
  {
    "uf": "BA",
    "name": "Belo Campo",
    "latitude": -15.0334,
    "longitude": -41.2652
  },
  {
    "uf": "MG",
    "name": "Belo Horizonte",
    "latitude": -19.9102,
    "longitude": -43.9266
  },
  {
    "uf": "PE",
    "name": "Belo Jardim",
    "latitude": -8.3313,
    "longitude": -36.4258
  },
  {
    "uf": "AL",
    "name": "Belo Monte",
    "latitude": -9.82272,
    "longitude": -37.277
  },
  {
    "uf": "MG",
    "name": "Belo Oriente",
    "latitude": -19.2199,
    "longitude": -42.4828
  },
  {
    "uf": "MG",
    "name": "Belo Vale",
    "latitude": -20.4077,
    "longitude": -44.0275
  },
  {
    "uf": "PA",
    "name": "Belterra",
    "latitude": -2.63609,
    "longitude": -54.9374
  },
  {
    "uf": "PI",
    "name": "Beneditinos",
    "latitude": -5.45676,
    "longitude": -42.3638
  },
  {
    "uf": "MA",
    "name": "Benedito Leite",
    "latitude": -7.21037,
    "longitude": -44.5577
  },
  {
    "uf": "SC",
    "name": "Benedito Novo",
    "latitude": -26.781,
    "longitude": -49.3593
  },
  {
    "uf": "PA",
    "name": "Benevides",
    "latitude": -1.36183,
    "longitude": -48.2434
  },
  {
    "uf": "AM",
    "name": "Benjamin Constant",
    "latitude": -4.37768,
    "longitude": -70.0342
  },
  {
    "uf": "RS",
    "name": "Benjamin Constant do Sul",
    "latitude": -27.5086,
    "longitude": -52.5995
  },
  {
    "uf": "SP",
    "name": "Bento de Abreu",
    "latitude": -21.2686,
    "longitude": -50.814
  },
  {
    "uf": "RN",
    "name": "Bento Fernandes",
    "latitude": -5.69906,
    "longitude": -35.813
  },
  {
    "uf": "RS",
    "name": "Bento Gonçalves",
    "latitude": -29.1662,
    "longitude": -51.5165
  },
  {
    "uf": "MA",
    "name": "Bequimão",
    "latitude": -2.44162,
    "longitude": -44.7842
  },
  {
    "uf": "MG",
    "name": "Berilo",
    "latitude": -16.9567,
    "longitude": -42.4606
  },
  {
    "uf": "MG",
    "name": "Berizal",
    "latitude": -15.61,
    "longitude": -41.7432
  },
  {
    "uf": "PB",
    "name": "Bernardino Batista",
    "latitude": -6.44572,
    "longitude": -38.5521
  },
  {
    "uf": "SP",
    "name": "Bernardino de Campos",
    "latitude": -23.0164,
    "longitude": -49.4679
  },
  {
    "uf": "MA",
    "name": "Bernardo do Mearim",
    "latitude": -4.62666,
    "longitude": -44.7608
  },
  {
    "uf": "TO",
    "name": "Bernardo Sayão",
    "latitude": -7.87481,
    "longitude": -48.8893
  },
  {
    "uf": "SP",
    "name": "Bertioga",
    "latitude": -23.8486,
    "longitude": -46.1396
  },
  {
    "uf": "PI",
    "name": "Bertolínia",
    "latitude": -7.63338,
    "longitude": -43.9498
  },
  {
    "uf": "MG",
    "name": "Bertópolis",
    "latitude": -17.059,
    "longitude": -40.58
  },
  {
    "uf": "AM",
    "name": "Beruri",
    "latitude": -3.89874,
    "longitude": -61.3616
  },
  {
    "uf": "PE",
    "name": "Betânia",
    "latitude": -8.26787,
    "longitude": -38.0345
  },
  {
    "uf": "PI",
    "name": "Betânia do Piauí",
    "latitude": -8.14376,
    "longitude": -40.7989
  },
  {
    "uf": "MG",
    "name": "Betim",
    "latitude": -19.9668,
    "longitude": -44.2008
  },
  {
    "uf": "PE",
    "name": "Bezerros",
    "latitude": -8.2328,
    "longitude": -35.796
  },
  {
    "uf": "MG",
    "name": "Bias Fortes",
    "latitude": -21.602,
    "longitude": -43.7574
  },
  {
    "uf": "MG",
    "name": "Bicas",
    "latitude": -21.7232,
    "longitude": -43.056
  },
  {
    "uf": "SC",
    "name": "Biguaçu",
    "latitude": -27.496,
    "longitude": -48.6598
  },
  {
    "uf": "SP",
    "name": "Bilac",
    "latitude": -21.404,
    "longitude": -50.4746
  },
  {
    "uf": "MG",
    "name": "Biquinhas",
    "latitude": -18.7754,
    "longitude": -45.4974
  },
  {
    "uf": "SP",
    "name": "Birigui",
    "latitude": -21.291,
    "longitude": -50.3432
  },
  {
    "uf": "SP",
    "name": "Biritiba-Mirim",
    "latitude": -23.5698,
    "longitude": -46.0407
  },
  {
    "uf": "BA",
    "name": "Biritinga",
    "latitude": -11.6072,
    "longitude": -38.8051
  },
  {
    "uf": "PR",
    "name": "Bituruna",
    "latitude": -26.1607,
    "longitude": -51.5518
  },
  {
    "uf": "SC",
    "name": "Blumenau",
    "latitude": -26.9155,
    "longitude": -49.0709
  },
  {
    "uf": "PR",
    "name": "Boa Esperança",
    "latitude": -24.2467,
    "longitude": -52.7876
  },
  {
    "uf": "MG",
    "name": "Boa Esperança",
    "latitude": -21.0927,
    "longitude": -45.5612
  },
  {
    "uf": "ES",
    "name": "Boa Esperança",
    "latitude": -18.5395,
    "longitude": -40.3025
  },
  {
    "uf": "PR",
    "name": "Boa Esperança do Iguaçu",
    "latitude": -25.6324,
    "longitude": -53.2108
  },
  {
    "uf": "SP",
    "name": "Boa Esperança do Sul",
    "latitude": -21.9918,
    "longitude": -48.3906
  },
  {
    "uf": "PI",
    "name": "Boa Hora",
    "latitude": -4.41404,
    "longitude": -42.1357
  },
  {
    "uf": "BA",
    "name": "Boa Nova",
    "latitude": -14.3598,
    "longitude": -40.2064
  },
  {
    "uf": "PB",
    "name": "Boa Ventura",
    "latitude": -7.40982,
    "longitude": -38.2113
  },
  {
    "uf": "PR",
    "name": "Boa Ventura de São Roque",
    "latitude": -24.8688,
    "longitude": -51.6276
  },
  {
    "uf": "CE",
    "name": "Boa Viagem",
    "latitude": -5.11258,
    "longitude": -39.7337
  },
  {
    "uf": "RR",
    "name": "Boa Vista",
    "latitude": 2.82384,
    "longitude": -60.6753
  },
  {
    "uf": "PB",
    "name": "Boa Vista",
    "latitude": -7.26365,
    "longitude": -36.2357
  },
  {
    "uf": "PR",
    "name": "Boa Vista da Aparecida",
    "latitude": -25.4308,
    "longitude": -53.4117
  },
  {
    "uf": "RS",
    "name": "Boa Vista das Missões",
    "latitude": -27.6671,
    "longitude": -53.3102
  },
  {
    "uf": "RS",
    "name": "Boa Vista do Buricá",
    "latitude": -27.6693,
    "longitude": -54.1082
  },
  {
    "uf": "RS",
    "name": "Boa Vista do Cadeado",
    "latitude": -28.5791,
    "longitude": -53.8108
  },
  {
    "uf": "MA",
    "name": "Boa Vista do Gurupi",
    "latitude": -1.77614,
    "longitude": -46.3002
  },
  {
    "uf": "RS",
    "name": "Boa Vista do Incra",
    "latitude": -28.8185,
    "longitude": -53.391
  },
  {
    "uf": "AM",
    "name": "Boa Vista do Ramos",
    "latitude": -2.97409,
    "longitude": -57.5873
  },
  {
    "uf": "RS",
    "name": "Boa Vista do Sul",
    "latitude": -29.3544,
    "longitude": -51.6687
  },
  {
    "uf": "BA",
    "name": "Boa Vista do Tupim",
    "latitude": -12.6498,
    "longitude": -40.6064
  },
  {
    "uf": "AL",
    "name": "Boca da Mata",
    "latitude": -9.64308,
    "longitude": -36.2125
  },
  {
    "uf": "AM",
    "name": "Boca do Acre",
    "latitude": -8.74232,
    "longitude": -67.3919
  },
  {
    "uf": "PI",
    "name": "Bocaina",
    "latitude": -6.94124,
    "longitude": -41.3168
  },
  {
    "uf": "SP",
    "name": "Bocaina",
    "latitude": -22.1365,
    "longitude": -48.523
  },
  {
    "uf": "MG",
    "name": "Bocaina de Minas",
    "latitude": -22.1697,
    "longitude": -44.3972
  },
  {
    "uf": "SC",
    "name": "Bocaina do Sul",
    "latitude": -27.7455,
    "longitude": -49.9423
  },
  {
    "uf": "MG",
    "name": "Bocaiúva",
    "latitude": -17.1135,
    "longitude": -43.8104
  },
  {
    "uf": "PR",
    "name": "Bocaiúva do Sul",
    "latitude": -25.2066,
    "longitude": -49.1141
  },
  {
    "uf": "RN",
    "name": "Bodó",
    "latitude": -5.98027,
    "longitude": -36.4167
  },
  {
    "uf": "PE",
    "name": "Bodocó",
    "latitude": -7.77759,
    "longitude": -39.9338
  },
  {
    "uf": "MS",
    "name": "Bodoquena",
    "latitude": -20.537,
    "longitude": -56.7127
  },
  {
    "uf": "SP",
    "name": "Bofete",
    "latitude": -23.1055,
    "longitude": -48.2582
  },
  {
    "uf": "SP",
    "name": "Boituva",
    "latitude": -23.2855,
    "longitude": -47.6786
  },
  {
    "uf": "PE",
    "name": "Bom Conselho",
    "latitude": -9.16919,
    "longitude": -36.6857
  },
  {
    "uf": "MG",
    "name": "Bom Despacho",
    "latitude": -19.7386,
    "longitude": -45.2622
  },
  {
    "uf": "RJ",
    "name": "Bom Jardim",
    "latitude": -22.1545,
    "longitude": -42.4251
  },
  {
    "uf": "PE",
    "name": "Bom Jardim",
    "latitude": -7.79695,
    "longitude": -35.5784
  },
  {
    "uf": "MA",
    "name": "Bom Jardim",
    "latitude": -3.54129,
    "longitude": -45.606
  },
  {
    "uf": "SC",
    "name": "Bom Jardim da Serra",
    "latitude": -28.3377,
    "longitude": -49.6373
  },
  {
    "uf": "GO",
    "name": "Bom Jardim de Goiás",
    "latitude": -16.2063,
    "longitude": -52.1728
  },
  {
    "uf": "MG",
    "name": "Bom Jardim de Minas",
    "latitude": -21.9479,
    "longitude": -44.1885
  },
  {
    "uf": "SC",
    "name": "Bom Jesus",
    "latitude": -26.7326,
    "longitude": -52.3919
  },
  {
    "uf": "RS",
    "name": "Bom Jesus",
    "latitude": -28.6697,
    "longitude": -50.4295
  },
  {
    "uf": "PI",
    "name": "Bom Jesus",
    "latitude": -9.07124,
    "longitude": -44.359
  },
  {
    "uf": "RN",
    "name": "Bom Jesus",
    "latitude": -5.98648,
    "longitude": -35.5792
  },
  {
    "uf": "PB",
    "name": "Bom Jesus",
    "latitude": -6.81601,
    "longitude": -38.6453
  },
  {
    "uf": "BA",
    "name": "Bom Jesus da Lapa",
    "latitude": -13.2506,
    "longitude": -43.4108
  },
  {
    "uf": "MG",
    "name": "Bom Jesus da Penha",
    "latitude": -21.0148,
    "longitude": -46.5174
  },
  {
    "uf": "BA",
    "name": "Bom Jesus da Serra",
    "latitude": -14.3663,
    "longitude": -40.5126
  },
  {
    "uf": "MA",
    "name": "Bom Jesus das Selvas",
    "latitude": -4.47638,
    "longitude": -46.8641
  },
  {
    "uf": "GO",
    "name": "Bom Jesus de Goiás",
    "latitude": -18.2173,
    "longitude": -49.74
  },
  {
    "uf": "MG",
    "name": "Bom Jesus do Amparo",
    "latitude": -19.7054,
    "longitude": -43.4782
  },
  {
    "uf": "MT",
    "name": "Bom Jesus do Araguaia",
    "latitude": -12.1706,
    "longitude": -51.5032
  },
  {
    "uf": "MG",
    "name": "Bom Jesus do Galho",
    "latitude": -19.836,
    "longitude": -42.3165
  },
  {
    "uf": "RJ",
    "name": "Bom Jesus do Itabapoana",
    "latitude": -21.1449,
    "longitude": -41.6822
  },
  {
    "uf": "ES",
    "name": "Bom Jesus do Norte",
    "latitude": -21.1173,
    "longitude": -41.6731
  },
  {
    "uf": "SC",
    "name": "Bom Jesus do Oeste",
    "latitude": -26.6927,
    "longitude": -53.0967
  },
  {
    "uf": "PR",
    "name": "Bom Jesus do Sul",
    "latitude": -26.1958,
    "longitude": -53.5955
  },
  {
    "uf": "PA",
    "name": "Bom Jesus do Tocantins",
    "latitude": -5.0424,
    "longitude": -48.6047
  },
  {
    "uf": "TO",
    "name": "Bom Jesus do Tocantins",
    "latitude": -8.96306,
    "longitude": -48.165
  },
  {
    "uf": "SP",
    "name": "Bom Jesus dos Perdões",
    "latitude": -23.1356,
    "longitude": -46.4675
  },
  {
    "uf": "MA",
    "name": "Bom Lugar",
    "latitude": -4.37311,
    "longitude": -45.0326
  },
  {
    "uf": "RS",
    "name": "Bom Princípio",
    "latitude": -29.4856,
    "longitude": -51.3548
  },
  {
    "uf": "PI",
    "name": "Bom Princípio do Piauí",
    "latitude": -3.19631,
    "longitude": -41.6403
  },
  {
    "uf": "RS",
    "name": "Bom Progresso",
    "latitude": -27.5399,
    "longitude": -53.8716
  },
  {
    "uf": "MG",
    "name": "Bom Repouso",
    "latitude": -22.4675,
    "longitude": -46.144
  },
  {
    "uf": "SC",
    "name": "Bom Retiro",
    "latitude": -27.799,
    "longitude": -49.487
  },
  {
    "uf": "RS",
    "name": "Bom Retiro do Sul",
    "latitude": -29.6071,
    "longitude": -51.9456
  },
  {
    "uf": "MG",
    "name": "Bom Sucesso",
    "latitude": -21.0329,
    "longitude": -44.7537
  },
  {
    "uf": "PR",
    "name": "Bom Sucesso",
    "latitude": -23.7063,
    "longitude": -51.7671
  },
  {
    "uf": "PB",
    "name": "Bom Sucesso",
    "latitude": -6.44176,
    "longitude": -37.9234
  },
  {
    "uf": "SP",
    "name": "Bom Sucesso de Itararé",
    "latitude": -24.3155,
    "longitude": -49.1451
  },
  {
    "uf": "PR",
    "name": "Bom Sucesso do Sul",
    "latitude": -26.0731,
    "longitude": -52.8353
  },
  {
    "uf": "SC",
    "name": "Bombinhas",
    "latitude": -27.1382,
    "longitude": -48.5146
  },
  {
    "uf": "RR",
    "name": "Bonfim",
    "latitude": 3.36161,
    "longitude": -59.8333
  },
  {
    "uf": "MG",
    "name": "Bonfim",
    "latitude": -20.3302,
    "longitude": -44.2366
  },
  {
    "uf": "PI",
    "name": "Bonfim do Piauí",
    "latitude": -9.1605,
    "longitude": -42.8865
  },
  {
    "uf": "GO",
    "name": "Bonfinópolis",
    "latitude": -16.6173,
    "longitude": -48.9616
  },
  {
    "uf": "MG",
    "name": "Bonfinópolis de Minas",
    "latitude": -16.568,
    "longitude": -45.9839
  },
  {
    "uf": "BA",
    "name": "Boninal",
    "latitude": -12.7069,
    "longitude": -41.8286
  },
  {
    "uf": "PE",
    "name": "Bonito",
    "latitude": -8.47163,
    "longitude": -35.7292
  },
  {
    "uf": "BA",
    "name": "Bonito",
    "latitude": -11.9668,
    "longitude": -41.2647
  },
  {
    "uf": "PA",
    "name": "Bonito",
    "latitude": -1.36745,
    "longitude": -47.3066
  },
  {
    "uf": "MS",
    "name": "Bonito",
    "latitude": -21.1261,
    "longitude": -56.4836
  },
  {
    "uf": "MG",
    "name": "Bonito de Minas",
    "latitude": -15.3231,
    "longitude": -44.7543
  },
  {
    "uf": "PB",
    "name": "Bonito de Santa Fé",
    "latitude": -7.31341,
    "longitude": -38.5133
  },
  {
    "uf": "GO",
    "name": "Bonópolis",
    "latitude": -13.6329,
    "longitude": -49.8106
  },
  {
    "uf": "PB",
    "name": "Boqueirão",
    "latitude": -7.487,
    "longitude": -36.1309
  },
  {
    "uf": "RS",
    "name": "Boqueirão do Leão",
    "latitude": -29.3046,
    "longitude": -52.4284
  },
  {
    "uf": "PI",
    "name": "Boqueirão do Piauí",
    "latitude": -4.48181,
    "longitude": -42.1212
  },
  {
    "uf": "SE",
    "name": "Boquim",
    "latitude": -11.1397,
    "longitude": -37.6195
  },
  {
    "uf": "BA",
    "name": "Boquira",
    "latitude": -12.8205,
    "longitude": -42.7324
  },
  {
    "uf": "SP",
    "name": "Borá",
    "latitude": -22.2696,
    "longitude": -50.5409
  },
  {
    "uf": "SP",
    "name": "Boracéia",
    "latitude": -22.1926,
    "longitude": -48.7808
  },
  {
    "uf": "AM",
    "name": "Borba",
    "latitude": -4.39154,
    "longitude": -59.5874
  },
  {
    "uf": "PB",
    "name": "Borborema",
    "latitude": -6.80199,
    "longitude": -35.6187
  },
  {
    "uf": "SP",
    "name": "Borborema",
    "latitude": -21.6214,
    "longitude": -49.0741
  },
  {
    "uf": "MG",
    "name": "Borda da Mata",
    "latitude": -22.2707,
    "longitude": -46.1653
  },
  {
    "uf": "SP",
    "name": "Borebi",
    "latitude": -22.5728,
    "longitude": -48.9707
  },
  {
    "uf": "PR",
    "name": "Borrazópolis",
    "latitude": -23.9366,
    "longitude": -51.5875
  },
  {
    "uf": "RS",
    "name": "Bossoroca",
    "latitude": -28.7291,
    "longitude": -54.9035
  },
  {
    "uf": "MG",
    "name": "Botelhos",
    "latitude": -21.6412,
    "longitude": -46.391
  },
  {
    "uf": "SP",
    "name": "Botucatu",
    "latitude": -22.8837,
    "longitude": -48.4437
  },
  {
    "uf": "MG",
    "name": "Botumirim",
    "latitude": -16.8657,
    "longitude": -43.0086
  },
  {
    "uf": "BA",
    "name": "Botuporã",
    "latitude": -13.3772,
    "longitude": -42.5163
  },
  {
    "uf": "SC",
    "name": "Botuverá",
    "latitude": -27.2007,
    "longitude": -49.0689
  },
  {
    "uf": "RS",
    "name": "Bozano",
    "latitude": -28.3659,
    "longitude": -53.772
  },
  {
    "uf": "SC",
    "name": "Braço do Norte",
    "latitude": -28.2681,
    "longitude": -49.1701
  },
  {
    "uf": "SC",
    "name": "Braço do Trombudo",
    "latitude": -27.3586,
    "longitude": -49.8821
  },
  {
    "uf": "RS",
    "name": "Braga",
    "latitude": -27.6173,
    "longitude": -53.7405
  },
  {
    "uf": "PA",
    "name": "Bragança",
    "latitude": -1.06126,
    "longitude": -46.7826
  },
  {
    "uf": "SP",
    "name": "Bragança Paulista",
    "latitude": -22.9527,
    "longitude": -46.5419
  },
  {
    "uf": "PR",
    "name": "Braganey",
    "latitude": -24.8173,
    "longitude": -53.1218
  },
  {
    "uf": "AL",
    "name": "Branquinha",
    "latitude": -9.23342,
    "longitude": -36.0162
  },
  {
    "uf": "MG",
    "name": "Brás Pires",
    "latitude": -20.8419,
    "longitude": -43.2406
  },
  {
    "uf": "PA",
    "name": "Brasil Novo",
    "latitude": -3.29792,
    "longitude": -52.534
  },
  {
    "uf": "MS",
    "name": "Brasilândia",
    "latitude": -21.2544,
    "longitude": -52.0365
  },
  {
    "uf": "MG",
    "name": "Brasilândia de Minas",
    "latitude": -16.9999,
    "longitude": -46.0081
  },
  {
    "uf": "PR",
    "name": "Brasilândia do Sul",
    "latitude": -24.1978,
    "longitude": -53.5275
  },
  {
    "uf": "TO",
    "name": "Brasilândia do Tocantins",
    "latitude": -8.38918,
    "longitude": -48.4822
  },
  {
    "uf": "AC",
    "name": "Brasiléia",
    "latitude": -10.995,
    "longitude": -68.7497
  },
  {
    "uf": "PI",
    "name": "Brasileira",
    "latitude": -4.1337,
    "longitude": -41.7859
  },
  {
    "uf": "DF",
    "name": "Brasília",
    "latitude": -15.7795,
    "longitude": -47.9297
  },
  {
    "uf": "MG",
    "name": "Brasília de Minas",
    "latitude": -16.2104,
    "longitude": -44.4299
  },
  {
    "uf": "MT",
    "name": "Brasnorte",
    "latitude": -12.1474,
    "longitude": -57.9833
  },
  {
    "uf": "SP",
    "name": "Braúna",
    "latitude": -21.499,
    "longitude": -50.3175
  },
  {
    "uf": "MG",
    "name": "Braúnas",
    "latitude": -19.0562,
    "longitude": -42.7099
  },
  {
    "uf": "GO",
    "name": "Brazabrantes",
    "latitude": -16.4281,
    "longitude": -49.3863
  },
  {
    "uf": "MG",
    "name": "Brazópolis",
    "latitude": -22.4743,
    "longitude": -45.6166
  },
  {
    "uf": "PE",
    "name": "Brejão",
    "latitude": -9.02915,
    "longitude": -36.566
  },
  {
    "uf": "ES",
    "name": "Brejetuba",
    "latitude": -20.1395,
    "longitude": -41.2954
  },
  {
    "uf": "RN",
    "name": "Brejinho",
    "latitude": -6.18566,
    "longitude": -35.3591
  },
  {
    "uf": "PE",
    "name": "Brejinho",
    "latitude": -7.34694,
    "longitude": -37.2865
  },
  {
    "uf": "TO",
    "name": "Brejinho de Nazaré",
    "latitude": -11.0058,
    "longitude": -48.5683
  },
  {
    "uf": "MA",
    "name": "Brejo",
    "latitude": -3.67796,
    "longitude": -42.7527
  },
  {
    "uf": "SP",
    "name": "Brejo Alegre",
    "latitude": -21.1651,
    "longitude": -50.1861
  },
  {
    "uf": "PE",
    "name": "Brejo da Madre de Deus",
    "latitude": -8.14933,
    "longitude": -36.3741
  },
  {
    "uf": "MA",
    "name": "Brejo de Areia",
    "latitude": -4.334,
    "longitude": -45.581
  },
  {
    "uf": "PB",
    "name": "Brejo do Cruz",
    "latitude": -6.34185,
    "longitude": -37.4943
  },
  {
    "uf": "PI",
    "name": "Brejo do Piauí",
    "latitude": -8.20314,
    "longitude": -42.8229
  },
  {
    "uf": "PB",
    "name": "Brejo dos Santos",
    "latitude": -6.37065,
    "longitude": -37.8253
  },
  {
    "uf": "SE",
    "name": "Brejo Grande",
    "latitude": -10.4297,
    "longitude": -36.4611
  },
  {
    "uf": "PA",
    "name": "Brejo Grande do Araguaia",
    "latitude": -5.69822,
    "longitude": -48.4103
  },
  {
    "uf": "CE",
    "name": "Brejo Santo",
    "latitude": -7.48469,
    "longitude": -38.9799
  },
  {
    "uf": "BA",
    "name": "Brejões",
    "latitude": -13.1039,
    "longitude": -39.7988
  },
  {
    "uf": "BA",
    "name": "Brejolândia",
    "latitude": -12.4815,
    "longitude": -43.9679
  },
  {
    "uf": "PA",
    "name": "Breu Branco",
    "latitude": -3.77191,
    "longitude": -49.5735
  },
  {
    "uf": "PA",
    "name": "Breves",
    "latitude": -1.68036,
    "longitude": -50.4791
  },
  {
    "uf": "GO",
    "name": "Britânia",
    "latitude": -15.2428,
    "longitude": -51.1602
  },
  {
    "uf": "RS",
    "name": "Brochier",
    "latitude": -29.5501,
    "longitude": -51.5945
  },
  {
    "uf": "SP",
    "name": "Brodowski",
    "latitude": -20.9845,
    "longitude": -47.6572
  },
  {
    "uf": "SP",
    "name": "Brotas",
    "latitude": -22.2795,
    "longitude": -48.1251
  },
  {
    "uf": "BA",
    "name": "Brotas de Macaúbas",
    "latitude": -11.9915,
    "longitude": -42.6326
  },
  {
    "uf": "MG",
    "name": "Brumadinho",
    "latitude": -20.151,
    "longitude": -44.2007
  },
  {
    "uf": "BA",
    "name": "Brumado",
    "latitude": -14.2021,
    "longitude": -41.6696
  },
  {
    "uf": "SC",
    "name": "Brunópolis",
    "latitude": -27.3058,
    "longitude": -50.8684
  },
  {
    "uf": "SC",
    "name": "Brusque",
    "latitude": -27.0977,
    "longitude": -48.9107
  },
  {
    "uf": "MG",
    "name": "Bueno Brandão",
    "latitude": -22.4383,
    "longitude": -46.3491
  },
  {
    "uf": "MG",
    "name": "Buenópolis",
    "latitude": -17.8744,
    "longitude": -44.1775
  },
  {
    "uf": "PE",
    "name": "Buenos Aires",
    "latitude": -7.72449,
    "longitude": -35.3182
  },
  {
    "uf": "BA",
    "name": "Buerarema",
    "latitude": -14.9595,
    "longitude": -39.3028
  },
  {
    "uf": "MG",
    "name": "Bugre",
    "latitude": -19.4231,
    "longitude": -42.2552
  },
  {
    "uf": "PE",
    "name": "Buíque",
    "latitude": -8.61954,
    "longitude": -37.1606
  },
  {
    "uf": "AC",
    "name": "Bujari",
    "latitude": -9.81528,
    "longitude": -67.955
  },
  {
    "uf": "PA",
    "name": "Bujaru",
    "latitude": -1.51762,
    "longitude": -48.0381
  },
  {
    "uf": "SP",
    "name": "Buri",
    "latitude": -23.7977,
    "longitude": -48.5958
  },
  {
    "uf": "SP",
    "name": "Buritama",
    "latitude": -21.0661,
    "longitude": -50.1475
  },
  {
    "uf": "MA",
    "name": "Buriti",
    "latitude": -3.94169,
    "longitude": -42.9179
  },
  {
    "uf": "GO",
    "name": "Buriti Alegre",
    "latitude": -18.1378,
    "longitude": -49.0404
  },
  {
    "uf": "MA",
    "name": "Buriti Bravo",
    "latitude": -5.83239,
    "longitude": -43.8353
  },
  {
    "uf": "GO",
    "name": "Buriti de Goiás",
    "latitude": -16.1792,
    "longitude": -50.4302
  },
  {
    "uf": "TO",
    "name": "Buriti do Tocantins",
    "latitude": -5.31448,
    "longitude": -48.2271
  },
  {
    "uf": "PI",
    "name": "Buriti dos Lopes",
    "latitude": -3.18259,
    "longitude": -41.8695
  },
  {
    "uf": "PI",
    "name": "Buriti dos Montes",
    "latitude": -5.30584,
    "longitude": -41.0933
  },
  {
    "uf": "MA",
    "name": "Buriticupu",
    "latitude": -4.32375,
    "longitude": -46.4409
  },
  {
    "uf": "GO",
    "name": "Buritinópolis",
    "latitude": -14.4772,
    "longitude": -46.4076
  },
  {
    "uf": "BA",
    "name": "Buritirama",
    "latitude": -10.7171,
    "longitude": -43.6302
  },
  {
    "uf": "MA",
    "name": "Buritirana",
    "latitude": -5.59823,
    "longitude": -47.0131
  },
  {
    "uf": "RO",
    "name": "Buritis",
    "latitude": -10.1943,
    "longitude": -63.8324
  },
  {
    "uf": "MG",
    "name": "Buritis",
    "latitude": -15.6218,
    "longitude": -46.4221
  },
  {
    "uf": "SP",
    "name": "Buritizal",
    "latitude": -20.1911,
    "longitude": -47.7096
  },
  {
    "uf": "MG",
    "name": "Buritizeiro",
    "latitude": -17.3656,
    "longitude": -44.9606
  },
  {
    "uf": "RS",
    "name": "Butiá",
    "latitude": -30.1179,
    "longitude": -51.9601
  },
  {
    "uf": "AM",
    "name": "Caapiranga",
    "latitude": -3.31537,
    "longitude": -61.2206
  },
  {
    "uf": "PB",
    "name": "Caaporã",
    "latitude": -7.51351,
    "longitude": -34.9055
  },
  {
    "uf": "MS",
    "name": "Caarapó",
    "latitude": -22.6368,
    "longitude": -54.8209
  },
  {
    "uf": "BA",
    "name": "Caatiba",
    "latitude": -14.9699,
    "longitude": -40.4092
  },
  {
    "uf": "PB",
    "name": "Cabaceiras",
    "latitude": -7.48899,
    "longitude": -36.287
  },
  {
    "uf": "BA",
    "name": "Cabaceiras do Paraguaçu",
    "latitude": -12.5317,
    "longitude": -39.1902
  },
  {
    "uf": "MG",
    "name": "Cabeceira Grande",
    "latitude": -16.0335,
    "longitude": -47.0862
  },
  {
    "uf": "GO",
    "name": "Cabeceiras",
    "latitude": -15.7995,
    "longitude": -46.9265
  },
  {
    "uf": "PI",
    "name": "Cabeceiras do Piauí",
    "latitude": -4.4773,
    "longitude": -42.3069
  },
  {
    "uf": "PB",
    "name": "Cabedelo",
    "latitude": -6.98731,
    "longitude": -34.8284
  },
  {
    "uf": "RO",
    "name": "Cabixi",
    "latitude": -13.4945,
    "longitude": -60.552
  },
  {
    "uf": "PE",
    "name": "Cabo de Santo Agostinho",
    "latitude": -8.28218,
    "longitude": -35.0253
  },
  {
    "uf": "RJ",
    "name": "Cabo Frio",
    "latitude": -22.8894,
    "longitude": -42.0286
  },
  {
    "uf": "MG",
    "name": "Cabo Verde",
    "latitude": -21.4699,
    "longitude": -46.3919
  },
  {
    "uf": "SP",
    "name": "Cabrália Paulista",
    "latitude": -22.4576,
    "longitude": -49.3393
  },
  {
    "uf": "SP",
    "name": "Cabreúva",
    "latitude": -23.3053,
    "longitude": -47.1362
  },
  {
    "uf": "PE",
    "name": "Cabrobó",
    "latitude": -8.50548,
    "longitude": -39.3094
  },
  {
    "uf": "SC",
    "name": "Caçador",
    "latitude": -26.7757,
    "longitude": -51.012
  },
  {
    "uf": "SP",
    "name": "Caçapava",
    "latitude": -23.0992,
    "longitude": -45.7076
  },
  {
    "uf": "RS",
    "name": "Caçapava do Sul",
    "latitude": -30.5144,
    "longitude": -53.4827
  },
  {
    "uf": "RO",
    "name": "Cacaulândia",
    "latitude": -10.349,
    "longitude": -62.9043
  },
  {
    "uf": "RS",
    "name": "Cacequi",
    "latitude": -29.8883,
    "longitude": -54.822
  },
  {
    "uf": "MT",
    "name": "Cáceres",
    "latitude": -16.0764,
    "longitude": -57.6818
  },
  {
    "uf": "BA",
    "name": "Cachoeira",
    "latitude": -12.5994,
    "longitude": -38.9587
  },
  {
    "uf": "GO",
    "name": "Cachoeira Alta",
    "latitude": -18.7618,
    "longitude": -50.9432
  },
  {
    "uf": "MG",
    "name": "Cachoeira da Prata",
    "latitude": -19.521,
    "longitude": -44.4544
  },
  {
    "uf": "GO",
    "name": "Cachoeira de Goiás",
    "latitude": -16.6635,
    "longitude": -50.646
  },
  {
    "uf": "MG",
    "name": "Cachoeira de Minas",
    "latitude": -22.3511,
    "longitude": -45.7809
  },
  {
    "uf": "MG",
    "name": "Cachoeira de Pajeú",
    "latitude": -15.9688,
    "longitude": -41.4948
  },
  {
    "uf": "PA",
    "name": "Cachoeira do Arari",
    "latitude": -1.01226,
    "longitude": -48.9503
  },
  {
    "uf": "PA",
    "name": "Cachoeira do Piriá",
    "latitude": -1.75974,
    "longitude": -46.5459
  },
  {
    "uf": "RS",
    "name": "Cachoeira do Sul",
    "latitude": -30.033,
    "longitude": -52.8928
  },
  {
    "uf": "PB",
    "name": "Cachoeira dos Índios",
    "latitude": -6.91353,
    "longitude": -38.676
  },
  {
    "uf": "GO",
    "name": "Cachoeira Dourada",
    "latitude": -18.4859,
    "longitude": -49.4766
  },
  {
    "uf": "MG",
    "name": "Cachoeira Dourada",
    "latitude": -18.5161,
    "longitude": -49.5039
  },
  {
    "uf": "MA",
    "name": "Cachoeira Grande",
    "latitude": -2.93074,
    "longitude": -44.0528
  },
  {
    "uf": "SP",
    "name": "Cachoeira Paulista",
    "latitude": -22.6665,
    "longitude": -45.0154
  },
  {
    "uf": "RJ",
    "name": "Cachoeiras de Macacu",
    "latitude": -22.4658,
    "longitude": -42.6523
  },
  {
    "uf": "TO",
    "name": "Cachoeirinha",
    "latitude": -6.1156,
    "longitude": -47.9234
  },
  {
    "uf": "PE",
    "name": "Cachoeirinha",
    "latitude": -8.48668,
    "longitude": -36.2402
  },
  {
    "uf": "RS",
    "name": "Cachoeirinha",
    "latitude": -29.9472,
    "longitude": -51.1016
  },
  {
    "uf": "ES",
    "name": "Cachoeiro de Itapemirim",
    "latitude": -20.8462,
    "longitude": -41.1198
  },
  {
    "uf": "PB",
    "name": "Cacimba de Areia",
    "latitude": -7.12128,
    "longitude": -37.1563
  },
  {
    "uf": "PB",
    "name": "Cacimba de Dentro",
    "latitude": -6.6386,
    "longitude": -35.7778
  },
  {
    "uf": "PB",
    "name": "Cacimbas",
    "latitude": -7.20721,
    "longitude": -37.0604
  },
  {
    "uf": "AL",
    "name": "Cacimbinhas",
    "latitude": -9.40121,
    "longitude": -36.9911
  },
  {
    "uf": "RS",
    "name": "Cacique Doble",
    "latitude": -27.767,
    "longitude": -51.6597
  },
  {
    "uf": "RO",
    "name": "Cacoal",
    "latitude": -11.4343,
    "longitude": -61.4562
  },
  {
    "uf": "SP",
    "name": "Caconde",
    "latitude": -21.528,
    "longitude": -46.6437
  },
  {
    "uf": "GO",
    "name": "Caçu",
    "latitude": -18.5594,
    "longitude": -51.1328
  },
  {
    "uf": "BA",
    "name": "Caculé",
    "latitude": -14.5003,
    "longitude": -42.2229
  },
  {
    "uf": "BA",
    "name": "Caém",
    "latitude": -11.0677,
    "longitude": -40.432
  },
  {
    "uf": "MG",
    "name": "Caetanópolis",
    "latitude": -19.2971,
    "longitude": -44.4189
  },
  {
    "uf": "BA",
    "name": "Caetanos",
    "latitude": -14.3347,
    "longitude": -40.9175
  },
  {
    "uf": "MG",
    "name": "Caeté",
    "latitude": -19.8826,
    "longitude": -43.6704
  },
  {
    "uf": "PE",
    "name": "Caetés",
    "latitude": -8.7803,
    "longitude": -36.6268
  },
  {
    "uf": "BA",
    "name": "Caetité",
    "latitude": -14.0684,
    "longitude": -42.4861
  },
  {
    "uf": "BA",
    "name": "Cafarnaum",
    "latitude": -11.6914,
    "longitude": -41.4688
  },
  {
    "uf": "PR",
    "name": "Cafeara",
    "latitude": -22.789,
    "longitude": -51.7142
  },
  {
    "uf": "SP",
    "name": "Cafelândia",
    "latitude": -21.8031,
    "longitude": -49.6092
  },
  {
    "uf": "PR",
    "name": "Cafelândia",
    "latitude": -24.6189,
    "longitude": -53.3207
  },
  {
    "uf": "PR",
    "name": "Cafezal do Sul",
    "latitude": -23.9005,
    "longitude": -53.5124
  },
  {
    "uf": "SP",
    "name": "Caiabu",
    "latitude": -22.0127,
    "longitude": -51.2394
  },
  {
    "uf": "MG",
    "name": "Caiana",
    "latitude": -20.6956,
    "longitude": -41.9292
  },
  {
    "uf": "GO",
    "name": "Caiapônia",
    "latitude": -16.9539,
    "longitude": -51.8091
  },
  {
    "uf": "RS",
    "name": "Caibaté",
    "latitude": -28.2905,
    "longitude": -54.6454
  },
  {
    "uf": "SC",
    "name": "Caibi",
    "latitude": -27.0741,
    "longitude": -53.2458
  },
  {
    "uf": "RS",
    "name": "Caiçara",
    "latitude": -27.2791,
    "longitude": -53.4257
  },
  {
    "uf": "PB",
    "name": "Caiçara",
    "latitude": -6.62115,
    "longitude": -35.4581
  },
  {
    "uf": "RN",
    "name": "Caiçara do Norte",
    "latitude": -5.07091,
    "longitude": -36.0717
  },
  {
    "uf": "RN",
    "name": "Caiçara do Rio do Vento",
    "latitude": -5.76541,
    "longitude": -35.9938
  },
  {
    "uf": "RN",
    "name": "Caicó",
    "latitude": -6.45441,
    "longitude": -37.1067
  },
  {
    "uf": "SP",
    "name": "Caieiras",
    "latitude": -23.3607,
    "longitude": -46.7397
  },
  {
    "uf": "BA",
    "name": "Cairu",
    "latitude": -13.4904,
    "longitude": -39.0465
  },
  {
    "uf": "SP",
    "name": "Caiuá",
    "latitude": -21.8322,
    "longitude": -51.9969
  },
  {
    "uf": "SP",
    "name": "Cajamar",
    "latitude": -23.355,
    "longitude": -46.8781
  },
  {
    "uf": "MA",
    "name": "Cajapió",
    "latitude": -2.87326,
    "longitude": -44.6741
  },
  {
    "uf": "MA",
    "name": "Cajari",
    "latitude": -3.32742,
    "longitude": -45.0145
  },
  {
    "uf": "SP",
    "name": "Cajati",
    "latitude": -24.7324,
    "longitude": -48.1223
  },
  {
    "uf": "PB",
    "name": "Cajazeiras",
    "latitude": -6.88004,
    "longitude": -38.5577
  },
  {
    "uf": "PI",
    "name": "Cajazeiras do Piauí",
    "latitude": -6.79667,
    "longitude": -42.3903
  },
  {
    "uf": "PB",
    "name": "Cajazeirinhas",
    "latitude": -6.96016,
    "longitude": -37.8009
  },
  {
    "uf": "SP",
    "name": "Cajobi",
    "latitude": -20.8773,
    "longitude": -48.8063
  },
  {
    "uf": "AL",
    "name": "Cajueiro",
    "latitude": -9.3994,
    "longitude": -36.1559
  },
  {
    "uf": "PI",
    "name": "Cajueiro da Praia",
    "latitude": -2.93111,
    "longitude": -41.3408
  },
  {
    "uf": "MG",
    "name": "Cajuri",
    "latitude": -20.7903,
    "longitude": -42.7925
  },
  {
    "uf": "SP",
    "name": "Cajuru",
    "latitude": -21.2749,
    "longitude": -47.303
  },
  {
    "uf": "PE",
    "name": "Calçado",
    "latitude": -8.73108,
    "longitude": -36.3366
  },
  {
    "uf": "AP",
    "name": "Calçoene",
    "latitude": 2.50475,
    "longitude": -50.9512
  },
  {
    "uf": "MG",
    "name": "Caldas",
    "latitude": -21.9183,
    "longitude": -46.3843
  },
  {
    "uf": "PB",
    "name": "Caldas Brandão",
    "latitude": -7.1025,
    "longitude": -35.3272
  },
  {
    "uf": "GO",
    "name": "Caldas Novas",
    "latitude": -17.7441,
    "longitude": -48.6246
  },
  {
    "uf": "GO",
    "name": "Caldazinha",
    "latitude": -16.7117,
    "longitude": -49.0013
  },
  {
    "uf": "BA",
    "name": "Caldeirão Grande",
    "latitude": -11.0208,
    "longitude": -40.2956
  },
  {
    "uf": "PI",
    "name": "Caldeirão Grande do Piauí",
    "latitude": -7.3314,
    "longitude": -40.6366
  },
  {
    "uf": "PR",
    "name": "Califórnia",
    "latitude": -23.6566,
    "longitude": -51.3574
  },
  {
    "uf": "SC",
    "name": "Calmon",
    "latitude": -26.5942,
    "longitude": -51.095
  },
  {
    "uf": "PE",
    "name": "Calumbi",
    "latitude": -7.93551,
    "longitude": -38.1482
  },
  {
    "uf": "BA",
    "name": "Camacan",
    "latitude": -15.4142,
    "longitude": -39.4919
  },
  {
    "uf": "BA",
    "name": "Camaçari",
    "latitude": -12.6996,
    "longitude": -38.3263
  },
  {
    "uf": "MG",
    "name": "Camacho",
    "latitude": -20.6294,
    "longitude": -45.1593
  },
  {
    "uf": "PB",
    "name": "Camalaú",
    "latitude": -7.88503,
    "longitude": -36.8242
  },
  {
    "uf": "BA",
    "name": "Camamu",
    "latitude": -13.9398,
    "longitude": -39.1071
  },
  {
    "uf": "MG",
    "name": "Camanducaia",
    "latitude": -22.7515,
    "longitude": -46.1494
  },
  {
    "uf": "MS",
    "name": "Camapuã",
    "latitude": -19.5347,
    "longitude": -54.0431
  },
  {
    "uf": "RS",
    "name": "Camaquã",
    "latitude": -30.8489,
    "longitude": -51.8043
  },
  {
    "uf": "PE",
    "name": "Camaragibe",
    "latitude": -8.02351,
    "longitude": -34.9782
  },
  {
    "uf": "RS",
    "name": "Camargo",
    "latitude": -28.588,
    "longitude": -52.2003
  },
  {
    "uf": "PR",
    "name": "Cambará",
    "latitude": -23.0423,
    "longitude": -50.0753
  },
  {
    "uf": "RS",
    "name": "Cambará do Sul",
    "latitude": -29.0474,
    "longitude": -50.1465
  },
  {
    "uf": "PR",
    "name": "Cambé",
    "latitude": -23.2766,
    "longitude": -51.2798
  },
  {
    "uf": "PR",
    "name": "Cambira",
    "latitude": -23.589,
    "longitude": -51.5792
  },
  {
    "uf": "SC",
    "name": "Camboriú",
    "latitude": -27.0241,
    "longitude": -48.6503
  },
  {
    "uf": "RJ",
    "name": "Cambuci",
    "latitude": -21.5691,
    "longitude": -41.9187
  },
  {
    "uf": "MG",
    "name": "Cambuí",
    "latitude": -22.6115,
    "longitude": -46.0572
  },
  {
    "uf": "MG",
    "name": "Cambuquira",
    "latitude": -21.854,
    "longitude": -45.2896
  },
  {
    "uf": "PA",
    "name": "Cametá",
    "latitude": -2.24295,
    "longitude": -49.4979
  },
  {
    "uf": "CE",
    "name": "Camocim",
    "latitude": -2.9005,
    "longitude": -40.8544
  },
  {
    "uf": "PE",
    "name": "Camocim de São Félix",
    "latitude": -8.35865,
    "longitude": -35.7653
  },
  {
    "uf": "MG",
    "name": "Campanário",
    "latitude": -18.2427,
    "longitude": -41.7355
  },
  {
    "uf": "MG",
    "name": "Campanha",
    "latitude": -21.836,
    "longitude": -45.4004
  },
  {
    "uf": "MG",
    "name": "Campestre",
    "latitude": -21.7079,
    "longitude": -46.2381
  },
  {
    "uf": "AL",
    "name": "Campestre",
    "latitude": -8.84723,
    "longitude": -35.5685
  },
  {
    "uf": "RS",
    "name": "Campestre da Serra",
    "latitude": -28.7926,
    "longitude": -51.0941
  },
  {
    "uf": "GO",
    "name": "Campestre de Goiás",
    "latitude": -16.7624,
    "longitude": -49.695
  },
  {
    "uf": "MA",
    "name": "Campestre do Maranhão",
    "latitude": -6.17075,
    "longitude": -47.3625
  },
  {
    "uf": "PR",
    "name": "Campina da Lagoa",
    "latitude": -24.5893,
    "longitude": -52.7976
  },
  {
    "uf": "RS",
    "name": "Campina das Missões",
    "latitude": -27.9888,
    "longitude": -54.8416
  },
  {
    "uf": "SP",
    "name": "Campina do Monte Alegre",
    "latitude": -23.5895,
    "longitude": -48.4758
  },
  {
    "uf": "PR",
    "name": "Campina do Simão",
    "latitude": -25.0802,
    "longitude": -51.8237
  },
  {
    "uf": "PB",
    "name": "Campina Grande",
    "latitude": -7.22196,
    "longitude": -35.8731
  },
  {
    "uf": "PR",
    "name": "Campina Grande do Sul",
    "latitude": -25.3044,
    "longitude": -49.0551
  },
  {
    "uf": "MG",
    "name": "Campina Verde",
    "latitude": -19.5382,
    "longitude": -49.4862
  },
  {
    "uf": "GO",
    "name": "Campinaçu",
    "latitude": -13.787,
    "longitude": -48.5704
  },
  {
    "uf": "MT",
    "name": "Campinápolis",
    "latitude": -14.5162,
    "longitude": -52.893
  },
  {
    "uf": "SP",
    "name": "Campinas",
    "latitude": -22.9053,
    "longitude": -47.0659
  },
  {
    "uf": "PI",
    "name": "Campinas do Piauí",
    "latitude": -7.6593,
    "longitude": -41.8775
  },
  {
    "uf": "RS",
    "name": "Campinas do Sul",
    "latitude": -27.7174,
    "longitude": -52.6248
  },
  {
    "uf": "GO",
    "name": "Campinorte",
    "latitude": -14.3137,
    "longitude": -49.1511
  },
  {
    "uf": "SC",
    "name": "Campo Alegre",
    "latitude": -26.195,
    "longitude": -49.2676
  },
  {
    "uf": "AL",
    "name": "Campo Alegre",
    "latitude": -9.78451,
    "longitude": -36.3525
  },
  {
    "uf": "GO",
    "name": "Campo Alegre de Goiás",
    "latitude": -17.6363,
    "longitude": -47.7768
  },
  {
    "uf": "BA",
    "name": "Campo Alegre de Lourdes",
    "latitude": -9.52221,
    "longitude": -43.0126
  },
  {
    "uf": "PI",
    "name": "Campo Alegre do Fidalgo",
    "latitude": -8.38236,
    "longitude": -41.8344
  },
  {
    "uf": "MG",
    "name": "Campo Azul",
    "latitude": -16.5028,
    "longitude": -44.8096
  },
  {
    "uf": "MG",
    "name": "Campo Belo",
    "latitude": -20.8932,
    "longitude": -45.2699
  },